[{"name":"IBM","number_of_employees":388000,"address1":"New Orchard Road","address2":"","city":"Armonk","country_code":"USA","description":"Corporate Headquarters","latitude":41.109534,"longitude":-73.723999,"state_code":"NY","zip_code":"10504","Geolocation":{"type":"Point","coordinates":[-73.723999,41.109534]}},{"name":"Nokia","number_of_employees":125000,"address1":"Keilalahdentie 2-4","address2":"P.O. Box 226, FIN-00045 Nokia Group","city":"","country_code":"FIN","description":"headquarter","latitude":60.170514,"longitude":24.827224,"state_code":null,"zip_code":"FIN-00045","Geolocation":{"type":"Point","coordinates":[24.827224,60.170514]}},{"name":"Comcast","number_of_employees":100000,"address1":"1701 JFK Blvd","address2":"","city":"Philadelphia","country_code":"USA","description":"One Comcast Center","latitude":39.9525762,"longitude":-75.1652518,"state_code":"PA","zip_code":"19103","Geolocation":{"type":"Point","coordinates":[-75.1652518,39.9525762]}},{"name":"MetaCarta","number_of_employees":99999,"address1":"350 Massachusetts Ave","address2":"","city":"Cambridge","country_code":"USA","description":"World Headquarters","latitude":42.36236,"longitude":-71.099692,"state_code":"MA","zip_code":"02139","Geolocation":{"type":"Point","coordinates":[-71.099692,42.36236]}},{"name":"Microsoft","number_of_employees":90000,"address1":"1 Microsoft Way","address2":"","city":"Redmond","country_code":"USA","description":"World Headquarters","latitude":47.643583,"longitude":-122.128585,"state_code":"WA","zip_code":"","Geolocation":{"type":"Point","coordinates":[-122.128585,47.643583]}},{"name":"Cisco","number_of_employees":63000,"address1":"500 S 10th St.","address2":"","city":"Boise","country_code":"USA","description":"Boise Development Center","latitude":43.613184,"longitude":-116.209356,"state_code":"ID","zip_code":"83702","Geolocation":{"type":"Point","coordinates":[-116.209356,43.613184]}},{"name":"Nortel Networks","number_of_employees":30307,"address1":"170 West Tasman Dr.","address2":"","city":"San Jose","country_code":"USA","description":"Headquarters","latitude":37.408802,"longitude":-121.95377,"state_code":"CA","zip_code":"95134","Geolocation":{"type":"Point","coordinates":[-121.95377,37.408802]}},{"name":"The Walt Disney Company","number_of_employees":25000,"address1":"195 The West Mall","address2":"","city":"Toronto, ON","country_code":"CAN","description":"","latitude":43.6269669,"longitude":-79.5589112,"state_code":null,"zip_code":"M9C 5K1","Geolocation":{"type":"Point","coordinates":[-79.5589112,43.6269669]}},{"name":"Avaya","number_of_employees":18000,"address1":"500 S. Buena Vista St.","address2":"","city":"Burbank","country_code":"USA","description":null,"latitude":34.156802,"longitude":-118.324987,"state_code":"CA","zip_code":"91521","Geolocation":{"type":"Point","coordinates":[-118.324987,34.156802]}},{"name":"Experian","number_of_employees":15500,"address1":"4655 Great America Parkway","address2":"","city":"Santa Clara","country_code":"USA","description":"California","latitude":37.398076,"longitude":-121.977333,"state_code":"CA","zip_code":"95054","Geolocation":{"type":"Point","coordinates":[-121.977333,37.398076]}},{"name":"eBay","number_of_employees":15000,"address1":"211 Mt Airy Road","address2":"","city":"Basking Ridge","country_code":"USA","description":"HQ","latitude":40.694956,"longitude":-74.577599,"state_code":"NJ","zip_code":"07920","Geolocation":{"type":"Point","coordinates":[-74.577599,40.694956]}},{"name":"Yahoo!","number_of_employees":13600,"address1":"475 Anton Blvd.","address2":"","city":"Costa Mesa","country_code":"USA","description":null,"latitude":33.689171,"longitude":-117.874221,"state_code":"CA","zip_code":"92626","Geolocation":{"type":"Point","coordinates":[-117.874221,33.689171]}},{"name":"VMware","number_of_employees":13500,"address1":"2145 Hamilton Avenue","address2":"","city":"San Jose","country_code":"USA","description":"Headquarters","latitude":37.295005,"longitude":-121.930035,"state_code":"CA","zip_code":"95125","Geolocation":{"type":"Point","coordinates":[-121.930035,37.295005]}},{"name":"Citrix Systems","number_of_employees":9600,"address1":"701 First Avenue","address2":"","city":"Sunnyvale","country_code":"USA","description":null,"latitude":37.418531,"longitude":-122.025485,"state_code":"CA","zip_code":"94089","Geolocation":{"type":"Point","coordinates":[-122.025485,37.418531]}},{"name":"Webkinz","number_of_employees":8657,"address1":"3401 Hillview Ave","address2":"","city":"Palo Alto","country_code":"USA","description":null,"latitude":37.403315,"longitude":-122.145981,"state_code":"CA","zip_code":"94304","Geolocation":{"type":"Point","coordinates":[-122.145981,37.403315]}},{"name":"AOL","number_of_employees":8000,"address1":"851 West Cypress Creek Road","address2":"","city":"Fort Lauderdale","country_code":"USA","description":"HQ","latitude":26.20382,"longitude":-80.154212,"state_code":"FL","zip_code":"33309","Geolocation":{"type":"Point","coordinates":[-80.154212,26.20382]}},{"name":"NetApp","number_of_employees":8000,"address1":"One Pearce Road","address2":"","city":"Woodbridge","country_code":"CAN","description":null,"latitude":43.76969,"longitude":-79.549577,"state_code":null,"zip_code":"L4L 3T2","Geolocation":{"type":"Point","coordinates":[-79.549577,43.76969]}},{"name":"Intuit","number_of_employees":8000,"address1":"770 Broadway","address2":"","city":"New York","country_code":"USA","description":"HQ","latitude":40.7311317,"longitude":-73.9919311,"state_code":"NY","zip_code":"10003","Geolocation":{"type":"Point","coordinates":[-73.9919311,40.7311317]}},{"name":"Autodesk","number_of_employees":7800,"address1":null,"address2":null,"city":null,"country_code":"USA","description":null,"latitude":37.09024,"longitude":-95.712891,"state_code":null,"zip_code":null,"Geolocation":{"type":"Point","coordinates":[-95.712891,37.09024]}},{"name":"Adobe Systems","number_of_employees":7173,"address1":"2632 Marine Way","address2":"","city":"Mountain View","country_code":"USA","description":"Headquarters","latitude":37.428373,"longitude":-122.097604,"state_code":"CA","zip_code":"94043","Geolocation":{"type":"Point","coordinates":[-122.097604,37.428373]}},{"name":"Acxiom","number_of_employees":6200,"address1":"7535 Torrey Santa Fe Road","address2":"","city":"San Diego","country_code":"USA","description":"San Diego","latitude":32.957695,"longitude":-117.158245,"state_code":"CA","zip_code":"92129","Geolocation":{"type":"Point","coordinates":[-117.158245,32.957695]}},{"name":"Acxiom","number_of_employees":6200,"address1":"111 McInnis Parkway","address2":"","city":"San Rafael","country_code":"USA","description":"HQ","latitude":38.0062745,"longitude":-122.5315665,"state_code":"CA","zip_code":"94903","Geolocation":{"type":"Point","coordinates":[-122.5315665,38.0062745]}},{"name":"Nintendo","number_of_employees":5080,"address1":"","address2":"","city":"San Jose","country_code":"USA","description":"","latitude":37.320052,"longitude":-121.877636,"state_code":"CA","zip_code":"","Geolocation":{"type":"Point","coordinates":[-121.877636,37.320052]}},{"name":"United Internet","number_of_employees":5000,"address1":"601 East Third Street","address2":"","city":"Little Rock","country_code":"USA","description":"","latitude":34.7453104,"longitude":-92.2647169,"state_code":"AR","zip_code":"72201","Geolocation":{"type":"Point","coordinates":[-92.2647169,34.7453104]}},{"name":"Expedia","number_of_employees":4400,"address1":"601 East Third Street","address2":"","city":"Little Rock","country_code":"USA","description":"","latitude":34.7453104,"longitude":-92.2647169,"state_code":"AR","zip_code":"72201","Geolocation":{"type":"Point","coordinates":[-92.2647169,34.7453104]}},{"name":"Gameloft","number_of_employees":4000,"address1":null,"address2":null,"city":null,"country_code":"JPN","description":null,"latitude":36.204824,"longitude":138.252924,"state_code":null,"zip_code":null,"Geolocation":{"type":"Point","coordinates":[138.252924,36.204824]}},{"name":"Informatica","number_of_employees":4000,"address1":"Elgendorfer Stra\u00c3\u0178e 57","address2":"","city":"Montabur","country_code":"DEU","description":"HQ","latitude":50.4333344,"longitude":7.8048883,"state_code":null,"zip_code":"D-56410","Geolocation":{"type":"Point","coordinates":[7.8048883,50.4333344]}},{"name":"CODA","number_of_employees":3500,"address1":"3150 139th Avenue SE","address2":"","city":"Bellevue","country_code":"USA","description":"Corporate Office","latitude":47.58181,"longitude":-122.154837,"state_code":"WA","zip_code":"98005","Geolocation":{"type":"Point","coordinates":[-122.154837,47.58181]}},{"name":"Verio","number_of_employees":3000,"address1":"45 W. 25th Street","address2":"9th Floor","city":"New York","country_code":"USA","description":"New York Office","latitude":40.744034,"longitude":-73.991034,"state_code":"NY","zip_code":"10010","Geolocation":{"type":"Point","coordinates":[-73.991034,40.744034]}},{"name":"ECI Telecom","number_of_employees":3000,"address1":"100 Cardinal Way","address2":"","city":"Redwood City","country_code":"USA","description":"","latitude":37.504328,"longitude":-122.219979,"state_code":"CA","zip_code":"94063","Geolocation":{"type":"Point","coordinates":[-122.219979,37.504328]}},{"name":"Esri","number_of_employees":2900,"address1":"Cardale Park","address2":"Beckwith Head Road","city":"North Yorkshire","country_code":"GBR","description":"Corporate Headquarters","latitude":53.976358,"longitude":-1.567982,"state_code":null,"zip_code":"HG3 1RY","Geolocation":{"type":"Point","coordinates":[-1.567982,53.976358]}},{"name":"Sogeti USA","number_of_employees":2500,"address1":"8005 S Chester St. Suite 200","address2":"","city":"Centennial","country_code":"USA","description":"Colorado","latitude":39.626072,"longitude":-104.879833,"state_code":"CO","zip_code":"80112","Geolocation":{"type":"Point","coordinates":[-104.879833,39.626072]}},{"name":"Blackbaud","number_of_employees":2200,"address1":"5050 Conference Way North","address2":"","city":"Boca Raton","country_code":"USA","description":"Florida","latitude":26.3927011,"longitude":-80.1095464,"state_code":"FL","zip_code":"33431","Geolocation":{"type":"Point","coordinates":[-80.1095464,26.3927011]}},{"name":"SLK Software Services Pvt Ltd","number_of_employees":2100,"address1":"1203 North Research Way","address2":"","city":"Orem","country_code":"USA","description":"Utah","latitude":40.3193816,"longitude":-111.6808199,"state_code":"UT","zip_code":"84097","Geolocation":{"type":"Point","coordinates":[-111.6808199,40.3193816]}},{"name":"Netflix","number_of_employees":2000,"address1":"Neugablonzer Stra\u00c3\u0178e 1","address2":"","city":"Neutraubling","country_code":"DEU","description":"Germany","latitude":48.9781729,"longitude":12.1914121,"state_code":null,"zip_code":"D 93073","Geolocation":{"type":"Point","coordinates":[12.1914121,48.9781729]}},{"name":"Aspect Software","number_of_employees":2000,"address1":"5100 NW 33rd Avenue","address2":"","city":"Ft. Lauderdale","country_code":"USA","description":"Americas HQ","latitude":26.1875706,"longitude":-80.1912988,"state_code":"FL","zip_code":"33309","Geolocation":{"type":"Point","coordinates":[-80.1912988,26.1875706]}},{"name":"CEGID","number_of_employees":2000,"address1":"380 New York St","address2":"","city":"Redlands","country_code":"USA","description":"Headquarters","latitude":34.057165,"longitude":-117.194152,"state_code":"CA","zip_code":"92373","Geolocation":{"type":"Point","coordinates":[-117.194152,34.057165]}},{"name":"AppLabs","number_of_employees":2000,"address1":"7735 Paragon Road","address2":"","city":"Dayton","country_code":"USA","description":null,"latitude":39.631175,"longitude":-84.181175,"state_code":"OH","zip_code":"45459","Geolocation":{"type":"Point","coordinates":[-84.181175,39.631175]}},{"name":"OnMobile","number_of_employees":1600,"address1":"2000 Daniel Island Drive","address2":"","city":"Charleston","country_code":"USA","description":"Headquarters","latitude":32.869699,"longitude":-79.91832,"state_code":"SC","zip_code":"29492","Geolocation":{"type":"Point","coordinates":[-79.91832,32.869699]}},{"name":"Vonage","number_of_employees":1500,"address1":"New BEL road","address2":"Sanjay Nagar","city":"Bangalore","country_code":"IND","description":"SLK Software Services","latitude":13.0369829,"longitude":77.5659764,"state_code":null,"zip_code":"560094","Geolocation":{"type":"Point","coordinates":[77.5659764,13.0369829]}},{"name":"Blue Coat Systems","number_of_employees":1400,"address1":"100 Winchester Circle","address2":"","city":"Los Gatos","country_code":"USA","description":null,"latitude":37.25142,"longitude":-121.968687,"state_code":"CA","zip_code":"95032","Geolocation":{"type":"Point","coordinates":[-121.968687,37.25142]}},{"name":"StubHub","number_of_employees":1250,"address1":"300 Apollo Drive","address2":"","city":"Chelmsford","country_code":"USA","description":"HQ","latitude":42.6005604,"longitude":-71.3277854,"state_code":"MA","zip_code":"01824","Geolocation":{"type":"Point","coordinates":[-71.3277854,42.6005604]}},{"name":"Borland","number_of_employees":1200,"address1":"52 quai Paul Sedallian","address2":"","city":"Lyon","country_code":"FRA","description":"Si\u00c3\u00a8ge social","latitude":45.7924745,"longitude":4.8207353,"state_code":null,"zip_code":"69009","Geolocation":{"type":"Point","coordinates":[4.8207353,45.7924745]}},{"name":"HomeAdvisor","number_of_employees":1200,"address1":"Plot No. 83 & 84, Road # 2","address2":"ammo","city":"Hyderabad","country_code":"IND","description":"AppLabs - India","latitude":44.6672372,"longitude":4.7694829,"state_code":null,"zip_code":"500034","Geolocation":{"type":"Point","coordinates":[4.7694829,44.6672372]}},{"name":"Concur Technologies","number_of_employees":1200,"address1":"Tower # 1, 94\/1 C & 94\/2,","address2":"Veerasandra Village, Attibele Hobli, Anekal Taluk, Electronic City Phase-1","city":"Bangalore","country_code":"IND","description":"HQ","latitude":45.6680631,"longitude":-94.8199662,"state_code":null,"zip_code":"560100","Geolocation":{"type":"Point","coordinates":[-94.8199662,45.6680631]}},{"name":"MSC Software","number_of_employees":1006,"address1":"23 Main Street","address2":"","city":"Holmdel","country_code":"USA","description":"Vonage America","latitude":40.34537,"longitude":-74.187967,"state_code":"NJ","zip_code":"07733","Geolocation":{"type":"Point","coordinates":[-74.187967,40.34537]}},{"name":"Hello Travel","number_of_employees":1000,"address1":"2660 Matheson Boulevard East","address2":"Suite 301","city":"Mississauga, Ontario","country_code":"CAN","description":"Vonage Canada","latitude":43.661827,"longitude":-79.59942,"state_code":null,"zip_code":"L4W 5M2","Geolocation":{"type":"Point","coordinates":[-79.59942,43.661827]}},{"name":"SmeadSoft","number_of_employees":1000,"address1":"Brook House","address2":"229-243 Shepherds Bush Rd","city":"London","country_code":"GBR","description":"Vonage UK","latitude":51.512915,"longitude":-0.1471,"state_code":null,"zip_code":"W6 7AN","Geolocation":{"type":"Point","coordinates":[-0.1471,51.512915]}},{"name":"MetricStream","number_of_employees":1000,"address1":"420 N. Mary Avenue","address2":"","city":"Sunnyvale","country_code":"USA","description":null,"latitude":37.390753,"longitude":-122.039865,"state_code":"CA","zip_code":"94085","Geolocation":{"type":"Point","coordinates":[-122.039865,37.390753]}},{"name":"MD-IT","number_of_employees":1000,"address1":"199 Fremont St","address2":"Fl 4","city":"San Francisco","country_code":"USA","description":"","latitude":37.7892685,"longitude":-122.3951844,"state_code":"CA","zip_code":"94105","Geolocation":{"type":"Point","coordinates":[-122.3951844,37.7892685]}},{"name":"Infinera Corporation","number_of_employees":974,"address1":"8303 N. Mopac Expressway","address2":"Suite A-300","city":"Austin","country_code":"USA","description":"Corporate Headquarters","latitude":30.395732,"longitude":-97.732599,"state_code":"TX","zip_code":"78759-8374","Geolocation":{"type":"Point","coordinates":[-97.732599,30.395732]}},{"name":"Box","number_of_employees":950,"address1":"14023 Denver West Pkwy Building 64","address2":"","city":"Lakewood","country_code":"USA","description":"HQ","latitude":39.745092,"longitude":-105.158207,"state_code":"CO","zip_code":"80401-3253","Geolocation":{"type":"Point","coordinates":[-105.158207,39.745092]}},{"name":"Cornerstone OnDemand","number_of_employees":881,"address1":"18400 NE Union Hill Rd","address2":"","city":"Redmond","country_code":"USA","description":"Headquarters","latitude":51.5200277,"longitude":-0.651155,"state_code":"WA","zip_code":"98028","Geolocation":{"type":"Point","coordinates":[-0.651155,51.5200277]}},{"name":"MySpace","number_of_employees":800,"address1":"2 MaCarthur Place","address2":"","city":"Santa Ana","country_code":"USA","description":"","latitude":33.70263,"longitude":-117.865071,"state_code":"CA","zip_code":"92707","Geolocation":{"type":"Point","coordinates":[-117.865071,33.70263]}},{"name":"Mozilla","number_of_employees":800,"address1":"14 E 60th St","address2":"Ste 503","city":"New York","country_code":"USA","description":"HQ","latitude":40.7642348,"longitude":-73.971697,"state_code":"NY","zip_code":"10022-7139","Geolocation":{"type":"Point","coordinates":[-73.971697,40.7642348]}},{"name":"Cvent","number_of_employees":800,"address1":"600 Smead Blvd.","address2":"","city":"Hastings","country_code":"USA","description":"World headquarters","latitude":44.7362724,"longitude":-92.8450586,"state_code":"MN","zip_code":"55033-2219","Geolocation":{"type":"Point","coordinates":[-92.8450586,44.7362724]}},{"name":"Gateway TechnoLabs Pvt Ltd","number_of_employees":800,"address1":"616 South State College Blvd.","address2":"","city":"Fullerton","country_code":"USA","description":"Customer support","latitude":33.8659138,"longitude":-117.8894899,"state_code":"CA","zip_code":"92831","Geolocation":{"type":"Point","coordinates":[-117.8894899,33.8659138]}},{"name":"RightNow Technologies","number_of_employees":800,"address1":"2600 E. Bayshore Road","address2":"","city":"Palo Alto","country_code":"USA","description":"","latitude":37.446535,"longitude":-122.118794,"state_code":"CA","zip_code":"94303","Geolocation":{"type":"Point","coordinates":[-122.118794,37.446535]}},{"name":"Pegasystems","number_of_employees":750,"address1":"4940 Pearl East Circle, Suite 100","address2":"","city":"Boulder","country_code":"USA","description":"HQ","latitude":40.020421,"longitude":-105.236011,"state_code":"CO","zip_code":"80301","Geolocation":{"type":"Point","coordinates":[-105.236011,40.020421]}},{"name":"Intelligent Software Solutions","number_of_employees":730,"address1":"169 Java Drive","address2":"","city":"Sunnyvale","country_code":"USA","description":"Headquarters","latitude":37.411877,"longitude":-122.018277,"state_code":"CA","zip_code":"94089","Geolocation":{"type":"Point","coordinates":[-122.018277,37.411877]}},{"name":"Citrix Online","number_of_employees":700,"address1":"4440 El Camino Real","address2":"","city":"Los Altos","country_code":"USA","description":"HQ","latitude":37.425801,"longitude":-122.143701,"state_code":"CA","zip_code":"94022","Geolocation":{"type":"Point","coordinates":[-122.143701,37.425801]}},{"name":"Toluna","number_of_employees":700,"address1":"1601 Cloverfield Blvd.","address2":"Suite 620 South","city":"Santa Monica","country_code":"USA","description":"Headquarters","latitude":34.028182,"longitude":-118.472577,"state_code":"CA","zip_code":"90404","Geolocation":{"type":"Point","coordinates":[-118.472577,34.028182]}},{"name":"HubSpot","number_of_employees":650,"address1":"8391 Beverly Blvd.","address2":"#349","city":"Beverly Hills","country_code":"USA","description":"","latitude":34.076061,"longitude":-118.372953,"state_code":"CA","zip_code":"90048","Geolocation":{"type":"Point","coordinates":[-118.372953,34.076061]}},{"name":"Silver Spring Networks","number_of_employees":650,"address1":"650 Castro Street","address2":"Suite 300","city":"Mountain View","country_code":"USA","description":"","latitude":37.418491,"longitude":-122.08744,"state_code":"CA","zip_code":"94041","Geolocation":{"type":"Point","coordinates":[-122.08744,37.418491]}},{"name":"Bazaarvoice","number_of_employees":600,"address1":"8180 Greensboro Dr.","address2":"9th Floor","city":"McLean","country_code":"USA","description":"Cvent HQ","latitude":38.923453,"longitude":-77.227525,"state_code":"VA","zip_code":"22102","Geolocation":{"type":"Point","coordinates":[-77.227525,38.923453]}},{"name":"NaviSite","number_of_employees":600,"address1":"","address2":"","city":"Ahmedabad","country_code":"IND","description":"India Office","latitude":22.375372,"longitude":70.968241,"state_code":null,"zip_code":"380054","Geolocation":{"type":"Point","coordinates":[70.968241,22.375372]}},{"name":"Saba","number_of_employees":600,"address1":"136 Enterprise Blvd.","address2":"P.O. Box 9300","city":"Bozeman","country_code":"USA","description":"HQ","latitude":45.679294,"longitude":-111.046231,"state_code":"MT","zip_code":"59718","Geolocation":{"type":"Point","coordinates":[-111.046231,45.679294]}},{"name":"zanox","number_of_employees":600,"address1":"1 Rogers St","address2":"","city":"Cambridge","country_code":"USA","description":"","latitude":42.36233,"longitude":-71.081527,"state_code":"MA","zip_code":"02142-1209","Geolocation":{"type":"Point","coordinates":[-71.081527,42.36233]}},{"name":"MLB Advanced Media","number_of_employees":600,"address1":"5450 Tech Center Dr","address2":"","city":"Colorado Springs","country_code":"USA","description":"Corporate Headquarters","latitude":38.9085036,"longitude":-104.826367,"state_code":"CO","zip_code":"80919","Geolocation":{"type":"Point","coordinates":[-104.826367,38.9085036]}},{"name":"Itransition","number_of_employees":600,"address1":"7414 Hollister Avenue","address2":"","city":"Goleta","country_code":"USA","description":"","latitude":34.431454,"longitude":-119.855405,"state_code":"CA","zip_code":"93117","Geolocation":{"type":"Point","coordinates":[-119.855405,34.431454]}},{"name":"Consumers Union","number_of_employees":600,"address1":"1 bis rue Collange","address2":"","city":"Levallois Perret","country_code":"FRA","description":"HQ","latitude":48.8975883,"longitude":2.2827232,"state_code":null,"zip_code":"92300","Geolocation":{"type":"Point","coordinates":[2.2827232,48.8975883]}},{"name":"TESCRA","number_of_employees":580,"address1":"25 First St.","address2":"2nd Floor","city":"Cambridge","country_code":"USA","description":"Headquarters","latitude":42.375392,"longitude":-71.118487,"state_code":"MA","zip_code":"02141","Geolocation":{"type":"Point","coordinates":[-71.118487,42.375392]}},{"name":"OpenTable","number_of_employees":550,"address1":"575 Broadway Street","address2":"","city":"Redwood City","country_code":"USA","description":"","latitude":37.4858629,"longitude":-122.2067269,"state_code":"CA","zip_code":"94063","Geolocation":{"type":"Point","coordinates":[-122.2067269,37.4858629]}},{"name":"Splunk","number_of_employees":500,"address1":"3900 N Capital of Texas Hwy","address2":"","city":"Austin","country_code":"USA","description":"Head Office","latitude":30.407545,"longitude":-97.717667,"state_code":"TX","zip_code":"78746","Geolocation":{"type":"Point","coordinates":[-97.717667,30.407545]}},{"name":"XING","number_of_employees":500,"address1":"400 Minuteman Road","address2":"","city":"Andover","country_code":"USA","description":null,"latitude":42.696441,"longitude":-71.211129,"state_code":"MA","zip_code":"01810","Geolocation":{"type":"Point","coordinates":[-71.211129,42.696441]}},{"name":"Acquity Group","number_of_employees":500,"address1":"2400 Bridge Parkway","address2":"","city":"Redwood Shores","country_code":"USA","description":null,"latitude":37.503055,"longitude":-122.295701,"state_code":"CA","zip_code":"94065","Geolocation":{"type":"Point","coordinates":[-122.295701,37.503055]}},{"name":"A10 Networks","number_of_employees":500,"address1":"Stralauer Allee 2","address2":"","city":"Berlin","country_code":"DEU","description":null,"latitude":52.502642,"longitude":13.446834,"state_code":null,"zip_code":"10245","Geolocation":{"type":"Point","coordinates":[13.446834,52.502642]}},{"name":"Activeweb","number_of_employees":500,"address1":"75 9th Ave","address2":"","city":"New York","country_code":"USA","description":"","latitude":40.7418877,"longitude":-74.0047466,"state_code":"NY","zip_code":"10011","Geolocation":{"type":"Point","coordinates":[-74.0047466,40.7418877]}},{"name":"GARA Web Hosting","number_of_employees":480,"address1":"115 S Wild Basin Rd,","address2":"Suite #306","city":"Austin","country_code":"USA","description":"","latitude":30.304505,"longitude":-97.827614,"state_code":"TX","zip_code":"78746","Geolocation":{"type":"Point","coordinates":[-97.827614,30.304505]}},{"name":"Embarcadero Technologies","number_of_employees":450,"address1":"100 Truman Avenue","address2":"","city":"Yonkers","country_code":"USA","description":"Headquarters","latitude":40.9717753,"longitude":-73.8722411,"state_code":"NY","zip_code":"10703","Geolocation":{"type":"Point","coordinates":[-73.8722411,40.9717753]}},{"name":"INX","number_of_employees":433,"address1":"2440 Camino Ramon","address2":"Suite 263","city":"San Ramon","country_code":"USA","description":"TESCRA Headquarters","latitude":37.7705702,"longitude":-121.9642503,"state_code":"CA","zip_code":"94583","Geolocation":{"type":"Point","coordinates":[-121.9642503,37.7705702]}},{"name":"Zendesk","number_of_employees":400,"address1":"One Montgomery","address2":"","city":"San Francisco","country_code":"USA","description":"","latitude":37.785647,"longitude":-122.405265,"state_code":"CA","zip_code":"","Geolocation":{"type":"Point","coordinates":[-122.405265,37.785647]}},{"name":"SpringSoft","number_of_employees":400,"address1":"250 Brannan St.","address2":"","city":"San Francisco","country_code":"USA","description":"Headquarters","latitude":37.78274,"longitude":-122.390945,"state_code":"CA","zip_code":"94107","Geolocation":{"type":"Point","coordinates":[-122.390945,37.78274]}},{"name":"Higher One","number_of_employees":380,"address1":"Dammtorstrasse 29-32","address2":"","city":"Hamburg","country_code":"DEU","description":"XING AG","latitude":53.555554,"longitude":9.98793,"state_code":null,"zip_code":"20354","Geolocation":{"type":"Point","coordinates":[9.98793,53.555554]}},{"name":"SolarWinds","number_of_employees":354,"address1":"500 West Madison Street","address2":"","city":"Chicago","country_code":"USA","description":null,"latitude":41.881876,"longitude":-87.639713,"state_code":"IL","zip_code":"60606","Geolocation":{"type":"Point","coordinates":[-87.639713,41.881876]}},{"name":"HighJump Software","number_of_employees":352,"address1":"3 W Plumeria Drive","address2":"","city":"San Jose","country_code":"USA","description":"A10 Networks","latitude":37.391198,"longitude":-121.93393,"state_code":"CA","zip_code":"95134","Geolocation":{"type":"Point","coordinates":[-121.93393,37.391198]}},{"name":"Match","number_of_employees":350,"address1":"Bronikowskiego 3\/2","address2":"","city":"Warsaw","country_code":"POL","description":"Headquater","latitude":52.1332973,"longitude":21.0709375,"state_code":null,"zip_code":"","Geolocation":{"type":"Point","coordinates":[21.0709375,52.1332973]}},{"name":"CDNetworks","number_of_employees":350,"address1":"1083 Shallowdale","address2":"","city":"Troy","country_code":"USA","description":"","latitude":42.585951,"longitude":-83.126814,"state_code":"MI","zip_code":"48085","Geolocation":{"type":"Point","coordinates":[-83.126814,42.585951]}},{"name":"FriendFinder Networks","number_of_employees":350,"address1":"100 California Street","address2":"12th Floor","city":"San Francisco","country_code":"USA","description":"Corporate Headquarters","latitude":37.793949,"longitude":-122.398062,"state_code":"CA","zip_code":"94111","Geolocation":{"type":"Point","coordinates":[-122.398062,37.793949]}},{"name":"ScanCafe","number_of_employees":350,"address1":"6401 South West Freeway","address2":"","city":"Houston","country_code":"USA","description":"","latitude":29.719906,"longitude":-95.4950163,"state_code":"TX","zip_code":"77074","Geolocation":{"type":"Point","coordinates":[-95.4950163,29.719906]}},{"name":"Webtrends","number_of_employees":350,"address1":"989 Market St","address2":"St 300","city":"San Francisco","country_code":"USA","description":"Headquarters","latitude":55.676294,"longitude":12.568116,"state_code":"CA","zip_code":"94102","Geolocation":{"type":"Point","coordinates":[12.568116,55.676294]}},{"name":"Infusionsoft","number_of_employees":350,"address1":"2025 Gateway Place, Suite 400","address2":"","city":"San Jose","country_code":"USA","description":"USA Headquarters","latitude":37.37027,"longitude":-121.924053,"state_code":"CA","zip_code":"95110","Geolocation":{"type":"Point","coordinates":[-121.924053,37.37027]}},{"name":"FileMaker","number_of_employees":350,"address1":"25 Science Park","address2":"","city":"New Haven","country_code":"USA","description":"HQ","latitude":41.3239577,"longitude":-72.9268094,"state_code":"CT","zip_code":"06511","Geolocation":{"type":"Point","coordinates":[-72.9268094,41.3239577]}},{"name":"iTouchPoint","number_of_employees":350,"address1":"3711 South MoPac Expressway","address2":"Building Two","city":"Austin","country_code":"USA","description":"HQ","latitude":30.245535,"longitude":-97.805621,"state_code":"TX","zip_code":"78746","Geolocation":{"type":"Point","coordinates":[-97.805621,30.245535]}},{"name":"2AdPro","number_of_employees":350,"address1":"5600 West 83rd Street","address2":"Suite 600, 8200 Tower","city":"Minneapolis","country_code":"USA","description":"Headquarters","latitude":44.885076,"longitude":-93.415682,"state_code":"MN","zip_code":"55347","Geolocation":{"type":"Point","coordinates":[-93.415682,44.885076]}},{"name":"DemandTec","number_of_employees":350,"address1":"P.O. Box 12305","address2":"","city":"Dallas","country_code":"USA","description":"","latitude":32.863466,"longitude":-96.791739,"state_code":"TX","zip_code":"75225","Geolocation":{"type":"Point","coordinates":[-96.791739,32.863466]}},{"name":"mjunction services limite","number_of_employees":350,"address1":"441 W. Trimble Road","address2":"","city":"San Jose","country_code":"USA","description":"","latitude":37.4050988,"longitude":-121.9477639,"state_code":"CA","zip_code":"CA 95134","Geolocation":{"type":"Point","coordinates":[-121.9477639,37.4050988]}},{"name":"Tell Me More","number_of_employees":350,"address1":"6800 Broken Sound Parkway","address2":"Suite 100","city":"Boca Raton","country_code":"MYS","description":"","latitude":26.4074809,"longitude":-80.1169895,"state_code":"FL","zip_code":"56100","Geolocation":{"type":"Point","coordinates":[-80.1169895,26.4074809]}},{"name":"optionsXpress","number_of_employees":305,"address1":"1475 Rollins Road","address2":"","city":"Burlingame","country_code":"USA","description":"","latitude":37.592584,"longitude":-122.369676,"state_code":"CA","zip_code":"94010","Geolocation":{"type":"Point","coordinates":[-122.369676,37.592584]}},{"name":"Etsy","number_of_employees":300,"address1":"851 SW 6th Ave.","address2":"Suite 1600","city":"Portland","country_code":"USA","description":"HQ","latitude":45.518038,"longitude":-122.67934,"state_code":"OR","zip_code":"97204","Geolocation":{"type":"Point","coordinates":[-122.67934,45.518038]}},{"name":"VZnet Netzwerke","number_of_employees":300,"address1":"1260 S. Spectrum Blvd.","address2":"","city":"Chandler","country_code":"USA","description":"","latitude":33.2871748,"longitude":-111.8871813,"state_code":"AZ","zip_code":"85286","Geolocation":{"type":"Point","coordinates":[-111.8871813,33.2871748]}},{"name":"Absolute Software","number_of_employees":300,"address1":"5201 Patrick Henry Drive","address2":"","city":"Santa Clara","country_code":"USA","description":"Headquarters","latitude":37.406456,"longitude":-121.983146,"state_code":"CA","zip_code":"95054","Geolocation":{"type":"Point","coordinates":[-121.983146,37.406456]}},{"name":"SmallWorlds","number_of_employees":300,"address1":"1238 Highway 34","address2":"Suite 3,","city":"Aberdeen","country_code":"USA","description":"","latitude":40.390472,"longitude":-74.220852,"state_code":"NJ","zip_code":"07747","Geolocation":{"type":"Point","coordinates":[-74.220852,40.390472]}},{"name":"CareerNet","number_of_employees":300,"address1":"23371 Mulholland Dr","address2":"","city":"#132 Woodland Hills","country_code":"USA","description":"USA HQ","latitude":34.1580778,"longitude":-118.6356318,"state_code":"CA","zip_code":"91364","Geolocation":{"type":"Point","coordinates":[-118.6356318,34.1580778]}},{"name":"Mobiquest","number_of_employees":300,"address1":"1 Circle Star Way, Suite 200","address2":"","city":"San Carlos","country_code":"USA","description":"Corporate Headquarters","latitude":37.498842,"longitude":-122.239815,"state_code":"CA","zip_code":"94070","Geolocation":{"type":"Point","coordinates":[-122.239815,37.498842]}},{"name":"Epocrates","number_of_employees":300,"address1":"1 Northumberland Ave","address2":"","city":"London","country_code":"GBR","description":"United Kingdom","latitude":51.5069206,"longitude":-0.1249337,"state_code":null,"zip_code":"WC2N 5BW","Geolocation":{"type":"Point","coordinates":[-0.1249337,51.5069206]}},{"name":"LoopNet","number_of_employees":300,"address1":"43 Jawaharlal Nehru Road","address2":"Kolkata 700 071","city":"Kolkata","country_code":"IND","description":"Indian eCommerce company","latitude":22.5458928,"longitude":88.3479436,"state_code":null,"zip_code":"700071","Geolocation":{"type":"Point","coordinates":[88.3479436,22.5458928]}},{"name":"inContact","number_of_employees":300,"address1":"3710 E. University Drive","address2":"Suite #1","city":"Phoenix","country_code":"USA","description":"US headquarters","latitude":33.423392,"longitude":-112.001645,"state_code":"AZ","zip_code":"85034","Geolocation":{"type":"Point","coordinates":[-112.001645,33.423392]}},{"name":"BetterTrades","number_of_employees":300,"address1":"311 West Monroe Street","address2":"Suite 1000","city":"Chicago","country_code":"USA","description":"","latitude":41.8806258,"longitude":-87.6356066,"state_code":"IL","zip_code":"60606","Geolocation":{"type":"Point","coordinates":[-87.6356066,41.8806258]}},{"name":"White House Business Solutions","number_of_employees":300,"address1":"55 Washington St.","address2":"5th Floor","city":"Brooklyn","country_code":"USA","description":"","latitude":40.694731,"longitude":-73.983268,"state_code":"NY","zip_code":"11201","Geolocation":{"type":"Point","coordinates":[-73.983268,40.694731]}},{"name":"Evernote","number_of_employees":280,"address1":"Saarbr\u00fccker Strasse 38","address2":"","city":"Berlin","country_code":"DEU","description":"","latitude":52.5290751,"longitude":13.4161514,"state_code":null,"zip_code":"10405","Geolocation":{"type":"Point","coordinates":[13.4161514,52.5290751]}},{"name":"Koolanoo Group","number_of_employees":280,"address1":"1055 Dunsmuir St.","address2":"Suite 1600","city":"Vancouver","country_code":"CAN","description":"Corporate Headquarters","latitude":49.285941,"longitude":-123.120292,"state_code":null,"zip_code":"V7X 1K8","Geolocation":{"type":"Point","coordinates":[-123.120292,49.285941]}},{"name":"Koolanoo Group","number_of_employees":280,"address1":"2nd Floor","address2":"7000 North MoPac Expressway","city":"Austin","country_code":"USA","description":"U.S. Headquarters","latitude":30.265006,"longitude":-97.746608,"state_code":"TX","zip_code":"78731","Geolocation":{"type":"Point","coordinates":[-97.746608,30.265006]}},{"name":"Magento","number_of_employees":275,"address1":"78 Bartholomew Street","address2":"","city":"Newbury","country_code":"GBR","description":"European Headquarters","latitude":51.399101,"longitude":-1.325337,"state_code":null,"zip_code":"RG14 7AB","Geolocation":{"type":"Point","coordinates":[-1.325337,51.399101]}},{"name":"Sportsline","number_of_employees":264,"address1":"22 Stable Lane","address2":"Newton","city":"Auckland","country_code":"NZL","description":"KLEO","latitude":-36.862707,"longitude":174.760749,"state_code":null,"zip_code":"1010","Geolocation":{"type":"Point","coordinates":[174.760749,-36.862707]}},{"name":"Marketo","number_of_employees":260,"address1":"Outer Ring Road","address2":"Ballendur Post","city":"Bangalore","country_code":"IND","description":null,"latitude":12.924908,"longitude":77.550798,"state_code":null,"zip_code":"560103","Geolocation":{"type":"Point","coordinates":[77.550798,12.924908]}},{"name":"Kareo","number_of_employees":250,"address1":"10 Ubi Crescent","address2":"#07-41 Ubi Techpark","city":"Singapore","country_code":"SGP","description":"","latitude":1.326725,"longitude":103.894124,"state_code":null,"zip_code":"408564","Geolocation":{"type":"Point","coordinates":[103.894124,1.326725]}},{"name":"Zuora","number_of_employees":250,"address1":"1100 Park Place","address2":"Suite 300","city":"San Mateo","country_code":"USA","description":"Corporate Headquarters","latitude":37.544987,"longitude":-122.291394,"state_code":"CA","zip_code":"94403","Geolocation":{"type":"Point","coordinates":[-122.291394,37.544987]}},{"name":"NetShops","number_of_employees":250,"address1":"185 Berry Street","address2":"Suite 4000","city":"San Francisco","country_code":"USA","description":"LoopNet Headquarters","latitude":37.7759421,"longitude":-122.3931139,"state_code":"CA","zip_code":"94107","Geolocation":{"type":"Point","coordinates":[-122.3931139,37.7759421]}},{"name":"Acquirelists","number_of_employees":250,"address1":"7730 S. Union Park Ave.","address2":"Ste. 500","city":"Midvale","country_code":"USA","description":"Company Headquarters","latitude":40.6110797,"longitude":-111.853717,"state_code":"UT","zip_code":"84047","Geolocation":{"type":"Point","coordinates":[-111.853717,40.6110797]}},{"name":"eCopy","number_of_employees":250,"address1":"3890 Steve Reynolds Blvd","address2":"","city":"Norcross","country_code":"USA","description":"Atlanta Office","latitude":33.939181,"longitude":-84.134047,"state_code":"GA","zip_code":"30093","Geolocation":{"type":"Point","coordinates":[-84.134047,33.939181]}},{"name":"Venere","number_of_employees":250,"address1":"1096, EVR Periyar Road,","address2":"","city":"Chennai","country_code":"IND","description":"Corporate Office - INDIA","latitude":13.080128,"longitude":80.2519224,"state_code":null,"zip_code":"600003","Geolocation":{"type":"Point","coordinates":[80.2519224,13.080128]}},{"name":"Netsize","number_of_employees":250,"address1":"305 Walnut St","address2":"","city":"Redwood City","country_code":"USA","description":"HQ","latitude":37.386774,"longitude":-121.987661,"state_code":"CA","zip_code":"94063","Geolocation":{"type":"Point","coordinates":[-121.987661,37.386774]}},{"name":"Realtime Worlds","number_of_employees":225,"address1":"D\/20F, The Place, #9 Guanghua Road","address2":"Chaoyang District","city":"Beijing","country_code":"CHN","description":"Beijing Office","latitude":39.905556,"longitude":116.395833,"state_code":null,"zip_code":"100020","Geolocation":{"type":"Point","coordinates":[116.395833,39.905556]}},{"name":"Next Jump","number_of_employees":225,"address1":"D\/20F, The Place, #9 Guanghua Road","address2":"Chaoyang District","city":"Beijing","country_code":"CHN","description":"Beijing Office","latitude":39.905556,"longitude":116.395833,"state_code":null,"zip_code":"100020","Geolocation":{"type":"Point","coordinates":[116.395833,39.905556]}},{"name":"Location Labs","number_of_employees":220,"address1":"","address2":"","city":"Los Angeles","country_code":"USA","description":null,"latitude":34.052187,"longitude":-118.243425,"state_code":"CA","zip_code":"","Geolocation":{"type":"Point","coordinates":[-118.243425,34.052187]}},{"name":"Avisena","number_of_employees":220,"address1":"2200 West Cypress Creek Road","address2":"","city":"Fort Lauderdale","country_code":"USA","description":"HQ","latitude":37.09024,"longitude":-95.712891,"state_code":"FL","zip_code":"33309","Geolocation":{"type":"Point","coordinates":[-95.712891,37.09024]}},{"name":"Cellfish","number_of_employees":220,"address1":"901 Mariners Island Blvd","address2":"Suite 200","city":"San Mateo","country_code":"USA","description":"Marketo Headquarters","latitude":37.5583,"longitude":-122.301385,"state_code":"CA","zip_code":"94404","Geolocation":{"type":"Point","coordinates":[-122.301385,37.5583]}},{"name":"OZ Communications","number_of_employees":220,"address1":"3353 Michelson","address2":"Suite 400","city":"Irvine","country_code":"USA","description":"Kareo's Headquarters","latitude":33.676444,"longitude":-117.8587,"state_code":"CA","zip_code":"92612","Geolocation":{"type":"Point","coordinates":[-117.8587,33.676444]}},{"name":"MentorMate","number_of_employees":216,"address1":"1051 East Hillsdale Boulevard","address2":"Suite 600","city":"Foster City","country_code":"USA","description":"","latitude":37.5596277,"longitude":-122.2709868,"state_code":"CA","zip_code":"94404","Geolocation":{"type":"Point","coordinates":[-122.2709868,37.5596277]}},{"name":"Pervasive Software","number_of_employees":214,"address1":"","address2":"","city":"Omaha","country_code":"USA","description":null,"latitude":41.259751,"longitude":-95.942336,"state_code":"NE","zip_code":"","Geolocation":{"type":"Point","coordinates":[-95.942336,41.259751]}},{"name":"iWeb Technologies","number_of_employees":210,"address1":"1971 Western Avenue, Suite 2889","address2":"","city":"Albany","country_code":"USA","description":"Location","latitude":42.695348,"longitude":-73.878913,"state_code":"NY","zip_code":"12203","Geolocation":{"type":"Point","coordinates":[-73.878913,42.695348]}},{"name":"iWeb Technologies","number_of_employees":210,"address1":"1 Oracle Dr","address2":"","city":"Nashua","country_code":"USA","description":"Corporate Office","latitude":42.708479,"longitude":-71.464291,"state_code":"NH","zip_code":"03062","Geolocation":{"type":"Point","coordinates":[-71.464291,42.708479]}},{"name":"Inventa Technologies","number_of_employees":207,"address1":"Via della Camilluccia 693","address2":"","city":"Rome","country_code":"ITA","description":"Headqaurters","latitude":41.9495028,"longitude":12.4553856,"state_code":null,"zip_code":"00135","Geolocation":{"type":"Point","coordinates":[12.4553856,41.9495028]}},{"name":"Eventbrite","number_of_employees":200,"address1":"6 Rue de la Verrerie","address2":"","city":"Meudon  (Paris)","country_code":"FRA","description":"Headquaters","latitude":48.8943115,"longitude":2.288319,"state_code":null,"zip_code":"92197","Geolocation":{"type":"Point","coordinates":[2.288319,48.8943115]}},{"name":"Hightail","number_of_employees":200,"address1":"P.O. Box 5122","address2":"","city":"West Chatswood","country_code":"AUS","description":"","latitude":-33.867139,"longitude":151.207114,"state_code":null,"zip_code":"NSW 1515","Geolocation":{"type":"Point","coordinates":[151.207114,-33.867139]}},{"name":"Automattic","number_of_employees":200,"address1":"3-5., V\u00e1rmegye utca","address2":"","city":"Budapest","country_code":"HUN","description":"","latitude":47.4984056,"longitude":19.0407578,"state_code":null,"zip_code":"1052","Geolocation":{"type":"Point","coordinates":[19.0407578,47.4984056]}},{"name":"Woot","number_of_employees":200,"address1":"Business Center HIBISCUS Building A - 7th floor","address2":"Via Mentore Maggini, 50","city":"Rome","country_code":"ITA","description":"","latitude":41.8954656,"longitude":12.4823243,"state_code":null,"zip_code":"00143","Geolocation":{"type":"Point","coordinates":[12.4823243,41.8954656]}},{"name":"PixelCrayons","number_of_employees":200,"address1":"Barbara Strozzilaan 382","address2":"","city":"Amsterdam","country_code":"NLD","description":"","latitude":52.3738007,"longitude":4.8909347,"state_code":null,"zip_code":"1083 HN","Geolocation":{"type":"Point","coordinates":[4.8909347,52.3738007]}},{"name":"Turbine","number_of_employees":200,"address1":"Av. Europa 19 2\u00aa pta.","address2":"","city":"Alcobendas","country_code":"ESP","description":"","latitude":40.4167413,"longitude":-3.7032498,"state_code":null,"zip_code":"28108","Geolocation":{"type":"Point","coordinates":[-3.7032498,40.4167413]}},{"name":"Redwood Software","number_of_employees":200,"address1":"G\u00f6talandsv\u00e4gen 230, Hus 22","address2":"","city":"\u00c4lvsj\u00f6","country_code":"SWE","description":"","latitude":59.3327881,"longitude":18.0644881,"state_code":null,"zip_code":"125 44","Geolocation":{"type":"Point","coordinates":[18.0644881,59.3327881]}},{"name":"AMAX Global Services","number_of_employees":200,"address1":"1st Floor, GPS House","address2":"215 Great Portland St","city":"London","country_code":"GBR","description":"","latitude":51.5001524,"longitude":-0.1262362,"state_code":null,"zip_code":"W1W 5PN","Geolocation":{"type":"Point","coordinates":[-0.1262362,51.5001524]}},{"name":"Redwood Software","number_of_employees":200,"address1":"","address2":"","city":"Dundee","country_code":"GBR","description":null,"latitude":56.461428,"longitude":-2.968111,"state_code":null,"zip_code":"","Geolocation":{"type":"Point","coordinates":[-2.968111,56.461428]}},{"name":"AMAX Global Services","number_of_employees":200,"address1":"","address2":"","city":"Boulder","country_code":"USA","description":"","latitude":40.010492,"longitude":-105.276843,"state_code":"CO","zip_code":"","Geolocation":{"type":"Point","coordinates":[-105.276843,40.010492]}},{"name":"Mindjet","number_of_employees":200,"address1":"261 Fifth Avenue","address2":"8th Floor","city":"New York","country_code":"USA","description":"Corporate HQ","latitude":40.7451545,"longitude":-73.9869549,"state_code":"NY","zip_code":"10016","Geolocation":{"type":"Point","coordinates":[-73.9869549,40.7451545]}},{"name":"Nexenta Systems","number_of_employees":200,"address1":"5980 Horton St Suite 675","address2":"","city":"Emeryville","country_code":"USA","description":"","latitude":37.83466,"longitude":-122.291944,"state_code":"CA","zip_code":"94608","Geolocation":{"type":"Point","coordinates":[-122.291944,37.83466]}},{"name":"GENEVA SOFTWARE TECHNOLOGIES LTD","number_of_employees":200,"address1":"6100 Blue Lagoon Dr.","address2":"Suite 450","city":"Miami","country_code":"USA","description":null,"latitude":25.782058,"longitude":-80.296794,"state_code":"FL","zip_code":"33126","Geolocation":{"type":"Point","coordinates":[-80.296794,25.782058]}},{"name":"OpSource","number_of_employees":200,"address1":"215 Lexington Avenue","address2":"","city":"New York","country_code":"USA","description":"","latitude":40.761855,"longitude":-73.983754,"state_code":"NY","zip_code":"10016","Geolocation":{"type":"Point","coordinates":[-73.983754,40.761855]}},{"name":"Sonim Technologies","number_of_employees":200,"address1":"Windsor Station, Suite 150","address2":"1100, de la Gauchetiere West","city":"Montreal, Quebec","country_code":"CAN","description":"Montreal - Headquarters","latitude":45.4965703,"longitude":-73.5687974,"state_code":null,"zip_code":"H3B 2S2","Geolocation":{"type":"Point","coordinates":[-73.5687974,45.4965703]}},{"name":"Namco Bandai","number_of_employees":200,"address1":"3036 Hennepin Avenue","address2":"","city":"Minneapolis","country_code":"USA","description":"Headquarters","latitude":44.948786,"longitude":-93.161038,"state_code":"MN","zip_code":"55408","Geolocation":{"type":"Point","coordinates":[-93.161038,44.948786]}},{"name":"Rigel Networks","number_of_employees":200,"address1":"12365-B Riata Trace Parkway","address2":"","city":"Austin","country_code":"USA","description":"HQ","latitude":30.428372,"longitude":-97.741937,"state_code":"TX","zip_code":"78727","Geolocation":{"type":"Point","coordinates":[-97.741937,30.428372]}},{"name":"Shriv Commedia Solutions Pvt Ltd","number_of_employees":200,"address1":"20 Place du Commerce","address2":"","city":"Montreal, Qu\u00c3\u00a9bec","country_code":"CAN","description":"iWeb Headquarters","latitude":45.467876,"longitude":-73.54266,"state_code":null,"zip_code":"H3E 1Z6","Geolocation":{"type":"Point","coordinates":[-73.54266,45.467876]}},{"name":"EyeBuyDirect","number_of_employees":200,"address1":"20 Place du Commerce","address2":"","city":"Montreal, Qu\u00c3\u00a9bec","country_code":"CAN","description":"iWeb Headquarters","latitude":45.467876,"longitude":-73.54266,"state_code":null,"zip_code":"H3E 1Z6","Geolocation":{"type":"Point","coordinates":[-73.54266,45.467876]}},{"name":"Webfusion","number_of_employees":200,"address1":"2040 Briggs Road, Suite B4","address2":"","city":"Mount Laurel","country_code":"USA","description":"","latitude":39.964395,"longitude":-74.896402,"state_code":"NJ","zip_code":"08054","Geolocation":{"type":"Point","coordinates":[-74.896402,39.964395]}},{"name":"Unitrends Software","number_of_employees":200,"address1":"651 Brannan","address2":"Suite 110","city":"San Francisco","country_code":"USA","description":"HQ","latitude":37.779507,"longitude":-122.39071,"state_code":"CA","zip_code":"94107","Geolocation":{"type":"Point","coordinates":[-122.39071,37.779507]}},{"name":"Kerio Technologies","number_of_employees":200,"address1":"1919 S Bascom Ave","address2":"","city":"Campbell","country_code":"USA","description":"","latitude":37.288974,"longitude":-121.935688,"state_code":"CA","zip_code":"95008","Geolocation":{"type":"Point","coordinates":[-121.935688,37.288974]}},{"name":"Idealo","number_of_employees":200,"address1":"132 Hawthorne St","address2":"","city":"San Francisco","country_code":"USA","description":"Automattic Lounge","latitude":37.744274,"longitude":-122.421344,"state_code":"CA","zip_code":"94107","Geolocation":{"type":"Point","coordinates":[-122.421344,37.744274]}},{"name":"Razorsight","number_of_employees":190,"address1":"4121 International Parkway","address2":"","city":"Carrollton","country_code":"USA","description":null,"latitude":33.020526,"longitude":-96.848836,"state_code":"TX","zip_code":"75007","Geolocation":{"type":"Point","coordinates":[-96.848836,33.020526]}},{"name":"Glassdoor","number_of_employees":180,"address1":"228 Park Ave S # 25950","address2":"","city":"New York","country_code":"USA","description":"","latitude":28.682042,"longitude":77.087502,"state_code":"NY","zip_code":"10003","Geolocation":{"type":"Point","coordinates":[77.087502,28.682042]}},{"name":"Lyft","number_of_employees":180,"address1":"60 Glacier Drive, Suite 4000","address2":"","city":"Westwood","country_code":"USA","description":null,"latitude":42.214483,"longitude":-71.185964,"state_code":"MA","zip_code":"","Geolocation":{"type":"Point","coordinates":[-71.185964,42.214483]}},{"name":"Lyft","number_of_employees":180,"address1":"","address2":"","city":"Redwood City","country_code":"USA","description":"","latitude":37.477652,"longitude":-122.223384,"state_code":"CA","zip_code":"","Geolocation":{"type":"Point","coordinates":[-122.223384,37.477652]}},{"name":"Ipswitch","number_of_employees":180,"address1":"Waterveste 3","address2":"3992 DB Houten","city":"Houten","country_code":"NLD","description":"Global Headquarters","latitude":52.028929,"longitude":5.142674,"state_code":null,"zip_code":"","Geolocation":{"type":"Point","coordinates":[5.142674,52.028929]}},{"name":"fabrik","number_of_employees":175,"address1":"1565 Reliance Way","address2":"","city":"Fremont","country_code":"USA","description":"World Headquarters","latitude":37.501065,"longitude":-121.933191,"state_code":"CA","zip_code":"94539","Geolocation":{"type":"Point","coordinates":[-121.933191,37.501065]}},{"name":"Courion Corporation","number_of_employees":175,"address1":"Waterveste 3","address2":"3992 DB Houten","city":"Houten","country_code":"NLD","description":"Global Headquarters","latitude":52.028929,"longitude":5.142674,"state_code":null,"zip_code":"","Geolocation":{"type":"Point","coordinates":[5.142674,52.028929]}},{"name":"Courion Corporation","number_of_employees":175,"address1":"1565 Reliance Way","address2":"","city":"Fremont","country_code":"USA","description":"World Headquarters","latitude":37.501065,"longitude":-121.933191,"state_code":"CA","zip_code":"94539","Geolocation":{"type":"Point","coordinates":[-121.933191,37.501065]}},{"name":"ClickSquared","number_of_employees":175,"address1":"1160 Battery Street East","address2":"4th Floor","city":"San Francisco","country_code":"USA","description":"Head Office","latitude":50.095312,"longitude":9.049981,"state_code":"CA","zip_code":"94111","Geolocation":{"type":"Point","coordinates":[9.049981,50.095312]}},{"name":"Vocalocity","number_of_employees":175,"address1":"455 El Camino Real","address2":"","city":"Santa Clara","country_code":"USA","description":"World Headquarters","latitude":37.444098,"longitude":-122.161287,"state_code":"CA","zip_code":"95050","Geolocation":{"type":"Point","coordinates":[-122.161287,37.444098]}},{"name":"WANdisco","number_of_employees":175,"address1":"#1&2, Export Oriented Industrial Zone","address2":"","city":"Whitefield, Bangalore","country_code":"IND","description":"","latitude":39.39615,"longitude":22.76303,"state_code":null,"zip_code":"","Geolocation":{"type":"Point","coordinates":[22.76303,39.39615]}},{"name":"Turtle Entertainment","number_of_employees":175,"address1":"5201 Great America Parkway","address2":"Suite 120","city":"Santa Clara","country_code":"USA","description":"Corporate Headquarters","latitude":37.406217,"longitude":-121.976473,"state_code":"CA","zip_code":"95054","Geolocation":{"type":"Point","coordinates":[-121.976473,37.406217]}},{"name":"PacketFront","number_of_employees":170,"address1":"1875 S. Grant Street","address2":"Suite 620","city":"San Mateo","country_code":"USA","description":"Corporate Headquarters","latitude":37.553121,"longitude":-122.301534,"state_code":"CA","zip_code":"94402","Geolocation":{"type":"Point","coordinates":[-122.301534,37.553121]}},{"name":"Hifn","number_of_employees":166,"address1":"1740 Technology Drive","address2":"Suite 320","city":"San Jose","country_code":"USA","description":"","latitude":37.367487,"longitude":-121.917833,"state_code":"CA","zip_code":"95110","Geolocation":{"type":"Point","coordinates":[-121.917833,37.367487]}},{"name":"QSGI","number_of_employees":164,"address1":"1500 Quail St. Suite 280,","address2":"","city":"Newport Beach","country_code":"USA","description":"","latitude":33.660955,"longitude":-117.867679,"state_code":"CA","zip_code":"92660","Geolocation":{"type":"Point","coordinates":[-117.867679,33.660955]}},{"name":"Cubics","number_of_employees":160,"address1":"D-100,","address2":"Sector-63","city":"Noida","country_code":"IND","description":"Corporate Office :","latitude":28.5865869,"longitude":77.3360319,"state_code":null,"zip_code":"201301","Geolocation":{"type":"Point","coordinates":[77.3360319,28.5865869]}},{"name":"Centrify","number_of_employees":160,"address1":"2801 South IH35","address2":"Suite 170","city":"Austin","country_code":"USA","description":"Headquarters","latitude":38.9825332,"longitude":-77.093279,"state_code":"TX","zip_code":"78741","Geolocation":{"type":"Point","coordinates":[-77.093279,38.9825332]}},{"name":"Centrify","number_of_employees":160,"address1":"3311 Porter Street NW","address2":"","city":"Washington, DC","country_code":"USA","description":"Webfusion Solutions","latitude":38.937505,"longitude":-77.065923,"state_code":"DC","zip_code":"20008","Geolocation":{"type":"Point","coordinates":[-77.065923,38.937505]}},{"name":"mFoundry","number_of_employees":160,"address1":"7 Technology Circle, Suite 100","address2":"","city":"Columbia","country_code":"USA","description":"Headquarters","latitude":34.10057,"longitude":-80.963732,"state_code":"SC","zip_code":"29203","Geolocation":{"type":"Point","coordinates":[-80.963732,34.10057]}},{"name":"Quantum Secure","number_of_employees":160,"address1":"111. North Market Street","address2":"Sixth Floor","city":"San Jose","country_code":"USA","description":"Headquarters","latitude":37.337402,"longitude":-121.894099,"state_code":"CA","zip_code":"95113","Geolocation":{"type":"Point","coordinates":[-121.894099,37.337402]}},{"name":"Mobile Messenger","number_of_employees":160,"address1":"Zionskirchstr. 73","address2":"","city":"Berlin","country_code":"DEU","description":"Berlin Office","latitude":52.5325472,"longitude":13.4089986,"state_code":null,"zip_code":"10119","Geolocation":{"type":"Point","coordinates":[13.4089986,52.5325472]}},{"name":"Savvion","number_of_employees":160,"address1":"1750 Presidents Street","address2":"Suite 205","city":"Reston","country_code":"USA","description":"Razorsight Washington, DC","latitude":38.872668,"longitude":-77.367981,"state_code":"VA","zip_code":"20190","Geolocation":{"type":"Point","coordinates":[-77.367981,38.872668]}},{"name":"IsayBlog!","number_of_employees":154,"address1":"1 Harbor Drive","address2":"Suite 300","city":"Sausalito","country_code":"USA","description":"","latitude":37.868002,"longitude":-122.500111,"state_code":"CA","zip_code":"94965","Geolocation":{"type":"Point","coordinates":[-122.500111,37.868002]}},{"name":"hulu","number_of_employees":153,"address1":"","address2":"","city":"San Francisco","country_code":"USA","description":"Lyft HQ","latitude":37.7899027,"longitude":-122.4007846,"state_code":"CA","zip_code":"94104","Geolocation":{"type":"Point","coordinates":[-122.4007846,37.7899027]}},{"name":"IMVU","number_of_employees":150,"address1":"","address2":"","city":"San Francisco","country_code":"USA","description":"Lyft HQ","latitude":37.7899027,"longitude":-122.4007846,"state_code":"CA","zip_code":"94104","Geolocation":{"type":"Point","coordinates":[-122.4007846,37.7899027]}},{"name":"Blurb","number_of_employees":150,"address1":"83 Hartwell Avenue","address2":"","city":"Lexington","country_code":"USA","description":"Corporate Headquarters","latitude":42.47218,"longitude":-71.262508,"state_code":"MA","zip_code":"02421","Geolocation":{"type":"Point","coordinates":[-71.262508,42.47218]}},{"name":"Oversee","number_of_employees":150,"address1":"1825 South Grant St., Suite 200","address2":null,"city":"San Mateo","country_code":"USA","description":null,"latitude":37.553743,"longitude":-122.300246,"state_code":"CA","zip_code":"94402","Geolocation":{"type":"Point","coordinates":[-122.300246,37.553743]}},{"name":"Boonty","number_of_employees":150,"address1":"","address2":"","city":"Westborough","country_code":"USA","description":"","latitude":42.309399,"longitude":-71.436358,"state_code":"MA","zip_code":"","Geolocation":{"type":"Point","coordinates":[-71.436358,42.309399]}},{"name":"InMage Systems","number_of_employees":150,"address1":"","address2":"","city":"Westborough","country_code":"USA","description":"","latitude":42.309399,"longitude":-71.436358,"state_code":"MA","zip_code":"","Geolocation":{"type":"Point","coordinates":[-71.436358,42.309399]}},{"name":"Bonobos","number_of_employees":150,"address1":"280 Summer St","address2":"6th Floor","city":"Boston","country_code":"USA","description":"","latitude":42.3913892,"longitude":-71.2709869,"state_code":"MA","zip_code":"02210","Geolocation":{"type":"Point","coordinates":[-71.2709869,42.3913892]}},{"name":"iRise","number_of_employees":150,"address1":"1375 Peachtree Street NE","address2":"2 Floor","city":"Atlanta","country_code":"USA","description":"Headquarters","latitude":33.7812614,"longitude":-84.3675617,"state_code":"GA","zip_code":"30309","Geolocation":{"type":"Point","coordinates":[-84.3675617,33.7812614]}},{"name":"Qumu","number_of_employees":150,"address1":"5000 Executive Pkwy","address2":"Suite 205","city":"San Ramon","country_code":"USA","description":"US HQ","latitude":37.769205,"longitude":-121.966395,"state_code":"CA","zip_code":"94583","Geolocation":{"type":"Point","coordinates":[-121.966395,37.769205]}},{"name":"ngmoco","number_of_employees":150,"address1":"Electric Works","address2":"Sheffield Digital Campus","city":"Sheffield","country_code":"GBR","description":"UK HQ","latitude":53.3800107,"longitude":-1.4629301,"state_code":null,"zip_code":"S1 2BJ","Geolocation":{"type":"Point","coordinates":[-1.4629301,53.3800107]}},{"name":"EDI Specialists","number_of_employees":150,"address1":"Siegburger Str. 189","address2":"","city":"Cologne","country_code":"DEU","description":"Headquarters","latitude":50.9272941,"longitude":6.9764978,"state_code":null,"zip_code":"50679","Geolocation":{"type":"Point","coordinates":[6.9764978,50.9272941]}},{"name":"PatientKeeper","number_of_employees":150,"address1":"","address2":"","city":"Stockholm","country_code":"SWE","description":null,"latitude":59.332788,"longitude":18.064488,"state_code":null,"zip_code":"","Geolocation":{"type":"Point","coordinates":[18.064488,59.332788]}},{"name":"Decho","number_of_employees":150,"address1":"750 University Avenue","address2":"","city":"Los Gatos","country_code":"USA","description":"","latitude":37.238916,"longitude":-121.973718,"state_code":"CA","zip_code":"95032","Geolocation":{"type":"Point","coordinates":[-121.973718,37.238916]}},{"name":"MapMyIndia","number_of_employees":150,"address1":"400 Royal Palm Way","address2":"","city":"Palm Beach","country_code":"USA","description":"","latitude":26.705331,"longitude":-80.041395,"state_code":"FL","zip_code":"33480","Geolocation":{"type":"Point","coordinates":[-80.041395,26.705331]}},{"name":"Imaginova","number_of_employees":150,"address1":"4600 Madison Ave","address2":"10th Floor","city":"Kansas City","country_code":"USA","description":"","latitude":39.044582,"longitude":-94.597567,"state_code":"MO","zip_code":"64112","Geolocation":{"type":"Point","coordinates":[-94.597567,39.044582]}},{"name":"Bomgar","number_of_employees":150,"address1":"785 N. Mary Avenue","address2":"Suite 200","city":"Sunnyvale","country_code":"USA","description":"HQ","latitude":37.390918,"longitude":-122.080843,"state_code":"CA","zip_code":"94085","Geolocation":{"type":"Point","coordinates":[-122.080843,37.390918]}},{"name":"Copan Systems","number_of_employees":144,"address1":"785 N. Mary Avenue","address2":"Suite 200","city":"Sunnyvale","country_code":"USA","description":"HQ","latitude":37.390918,"longitude":-122.080843,"state_code":"CA","zip_code":"94085","Geolocation":{"type":"Point","coordinates":[-122.080843,37.390918]}},{"name":"Medallia","number_of_employees":140,"address1":"60 E Sir Francis Drake Blvd","address2":"Suite 200","city":"Larkspur","country_code":"USA","description":"Headquarters","latitude":37.862592,"longitude":-122.493561,"state_code":"CA","zip_code":"94939","Geolocation":{"type":"Point","coordinates":[-122.493561,37.862592]}},{"name":"Halogen Software","number_of_employees":140,"address1":"100 Century Center Court","address2":"Suite 800","city":"San Jose","country_code":"USA","description":"Head Office","latitude":37.367838,"longitude":-121.915594,"state_code":"CA","zip_code":"95112","Geolocation":{"type":"Point","coordinates":[-121.915594,37.367838]}},{"name":"Brandsclub","number_of_employees":140,"address1":"6601 Center Dr W,","address2":"","city":"Los Angeles","country_code":"USA","description":"Mobile Messenger, Inc.","latitude":33.979956,"longitude":-118.393979,"state_code":"CA","zip_code":"90045","Geolocation":{"type":"Point","coordinates":[-118.393979,33.979956]}},{"name":"PayScale","number_of_employees":130,"address1":"5104 Old Ironsides Drive","address2":"Suite 205","city":"Santa Clara","country_code":"USA","description":"Corporate Headquarters","latitude":37.4035237,"longitude":-121.9801441,"state_code":"CA","zip_code":"95054","Geolocation":{"type":"Point","coordinates":[-121.9801441,37.4035237]}},{"name":"Zend Technologies","number_of_employees":130,"address1":"Piazza delle Cinque Scole, 38","address2":"","city":"Rome","country_code":"ITA","description":"Roma","latitude":41.8924033,"longitude":12.4764711,"state_code":null,"zip_code":"00186","Geolocation":{"type":"Point","coordinates":[12.4764711,41.8924033]}},{"name":"thePlatform","number_of_employees":130,"address1":"12312 W. Olympic Blvd.","address2":null,"city":"Los Angeles","country_code":"USA","description":null,"latitude":34.031276,"longitude":-118.456806,"state_code":"CA","zip_code":"90064","Geolocation":{"type":"Point","coordinates":[-118.456806,34.031276]}},{"name":"SAVO","number_of_employees":130,"address1":"200 West Evelyn Ave.","address2":"Suite 220","city":"Mountain View","country_code":"USA","description":"","latitude":37.3927975,"longitude":-122.0727749,"state_code":"CA","zip_code":"94041","Geolocation":{"type":"Point","coordinates":[-122.0727749,37.3927975]}},{"name":"Consileon Business Consultancy GmbH","number_of_employees":130,"address1":"580 California St.","address2":"Suite 300","city":"San Francisco","country_code":"USA","description":null,"latitude":37.792968,"longitude":-122.40414,"state_code":"CA","zip_code":"94104","Geolocation":{"type":"Point","coordinates":[-122.40414,37.792968]}},{"name":"Bitam","number_of_employees":130,"address1":"515 S. Flower Street Suite 4400","address2":"","city":"Los Angeles","country_code":"USA","description":"Headquarters","latitude":34.051368,"longitude":-118.256305,"state_code":"CA","zip_code":"90071","Geolocation":{"type":"Point","coordinates":[-118.256305,34.051368]}},{"name":"Z2Live","number_of_employees":130,"address1":"54 Franklin Street","address2":"3F","city":"New York","country_code":"USA","description":null,"latitude":40.717248,"longitude":-74.002662,"state_code":"NY","zip_code":"10013","Geolocation":{"type":"Point","coordinates":[-74.002662,40.717248]}},{"name":"Velocify","number_of_employees":125,"address1":"100 Century Center Court","address2":"#705","city":"San Jose","country_code":"USA","description":"HQ","latitude":37.381034,"longitude":-121.971487,"state_code":"CA","zip_code":"95112","Geolocation":{"type":"Point","coordinates":[-121.971487,37.381034]}},{"name":"TeleSciences","number_of_employees":125,"address1":"45 West 25th Street","address2":"5th Floor","city":"New York","country_code":"USA","description":"","latitude":40.7384997,"longitude":-73.9954585,"state_code":"NY","zip_code":"10011","Geolocation":{"type":"Point","coordinates":[-73.9954585,40.7384997]}},{"name":"RGB Networks","number_of_employees":125,"address1":"2321 Rosecrans Ave.","address2":"Suite 4200","city":"El Segundo","country_code":"USA","description":"Headquarters","latitude":33.9019812,"longitude":-118.3812173,"state_code":"CA","zip_code":"90245","Geolocation":{"type":"Point","coordinates":[-118.3812173,33.9019812]}},{"name":"Modern Feed","number_of_employees":123,"address1":"1100 Grundy Lane","address2":"Suite 110","city":"San Bruno","country_code":"USA","description":"Corporate Headquarters","latitude":37.630551,"longitude":-122.422113,"state_code":"CA","zip_code":"94066","Geolocation":{"type":"Point","coordinates":[-122.422113,37.630551]}},{"name":"Next New Networks","number_of_employees":121,"address1":"185 Berry Street","address2":"Suite 3000","city":"San Francisco","country_code":"USA","description":"Secret Factory","latitude":37.7705096,"longitude":-122.4015807,"state_code":"CA","zip_code":"94107","Geolocation":{"type":"Point","coordinates":[-122.4015807,37.7705096]}},{"name":"Livestream","number_of_employees":120,"address1":"31 Bellows Road","address2":"","city":"Raynham","country_code":"USA","description":"","latitude":41.910715,"longitude":-71.0624609,"state_code":"MA","zip_code":"02767","Geolocation":{"type":"Point","coordinates":[-71.0624609,41.910715]}},{"name":"oDesk","number_of_employees":120,"address1":"880 Winter Street","address2":"Suite 300","city":"Waltham","country_code":"USA","description":"Headquarters","latitude":42.357119,"longitude":-71.1858605,"state_code":"MA","zip_code":"02451","Geolocation":{"type":"Point","coordinates":[-71.1858605,42.357119]}},{"name":"spigit","number_of_employees":120,"address1":"615 Second Avenue","address2":"Suite 280","city":"Seattle","country_code":"USA","description":"","latitude":47.6024156,"longitude":-122.3326145,"state_code":"WA","zip_code":"98104","Geolocation":{"type":"Point","coordinates":[-122.3326145,47.6024156]}},{"name":"Vobile","number_of_employees":120,"address1":"68, Okhla Industrial Area","address2":"Phase 3","city":"New Delhi","country_code":"IND","description":"MapmyIndia","latitude":28.5360568,"longitude":77.2078207,"state_code":null,"zip_code":"110020","Geolocation":{"type":"Point","coordinates":[77.2078207,28.5360568]}},{"name":"deviantART","number_of_employees":120,"address1":"470 Park Avenue South","address2":"","city":"New York","country_code":"USA","description":"Corporate Offices","latitude":40.7454971,"longitude":-73.9826042,"state_code":"NY","zip_code":"10016","Geolocation":{"type":"Point","coordinates":[-73.9826042,40.7454971]}},{"name":"Avature","number_of_employees":120,"address1":"578 Highland Colony Parkway","address2":"Paragon Centre, Suite 300","city":"Ridgeland","country_code":"USA","description":"HQ","latitude":32.416174,"longitude":-90.1633006,"state_code":"MS","zip_code":"39157","Geolocation":{"type":"Point","coordinates":[-90.1633006,32.416174]}},{"name":"Zagat","number_of_employees":120,"address1":"11330 Lakefield Drive","address2":"Suite 220","city":"Duluth","country_code":"USA","description":"Atlanta","latitude":34.057519,"longitude":-84.17173,"state_code":"GA","zip_code":"30097","Geolocation":{"type":"Point","coordinates":[-84.17173,34.057519]}},{"name":"Aristotle","number_of_employees":120,"address1":"54-56 Avenue Hoche","address2":"75008 Paris","city":"Paris","country_code":"FRA","description":"Paris","latitude":48.8752305,"longitude":2.2983373,"state_code":null,"zip_code":"","Geolocation":{"type":"Point","coordinates":[2.2983373,48.8752305]}},{"name":"LiveOffice","number_of_employees":120,"address1":"425 Market Street","address2":"Suite 2210","city":"San Francisco","country_code":"USA","description":"San Francisco","latitude":37.791128,"longitude":-122.398126,"state_code":"CA","zip_code":"94105","Geolocation":{"type":"Point","coordinates":[-122.398126,37.791128]}},{"name":"Merchantrms","number_of_employees":117,"address1":"11921 Freedom Drive","address2":"Two Fountain Square Suite 588","city":"Reston","country_code":"USA","description":"Washington D.C.","latitude":38.9594124,"longitude":-77.3563279,"state_code":"VA","zip_code":"20190","Geolocation":{"type":"Point","coordinates":[-77.3563279,38.9594124]}},{"name":"Minted","number_of_employees":115,"address1":"1900 Pike Road","address2":"","city":"Longmont","country_code":"USA","description":"Corporate Headquarters","latitude":40.138979,"longitude":-105.124465,"state_code":"CO","zip_code":"80501","Geolocation":{"type":"Point","coordinates":[-105.124465,40.138979]}},{"name":"Parts Express","number_of_employees":115,"address1":"395 Page Mill Rd.","address2":"Suite 100","city":"Palo Alto","country_code":"USA","description":"","latitude":37.4520239,"longitude":-122.1797053,"state_code":"CA","zip_code":"94306","Geolocation":{"type":"Point","coordinates":[-122.1797053,37.4520239]}},{"name":"Grooveshark","number_of_employees":113,"address1":"495 March Road","address2":"Suite 500","city":"Ottawa","country_code":"CAN","description":"Head Office","latitude":45.342845,"longitude":-75.917118,"state_code":null,"zip_code":"","Geolocation":{"type":"Point","coordinates":[-75.917118,45.342845]}},{"name":"Jajah","number_of_employees":110,"address1":"","address2":"","city":"Sao Paulo","country_code":"BRA","description":"","latitude":-23.5489433,"longitude":-46.6388182,"state_code":null,"zip_code":"","Geolocation":{"type":"Point","coordinates":[-46.6388182,-23.5489433]}},{"name":"TheLadders","number_of_employees":110,"address1":"542 First Ave South","address2":"Suite 400","city":"Seattle","country_code":"USA","description":"","latitude":47.5999337,"longitude":-122.3276962,"state_code":"WA","zip_code":"98104","Geolocation":{"type":"Point","coordinates":[-122.3276962,47.5999337]}},{"name":"FreshBooks","number_of_employees":110,"address1":"19200 Stevens Creek Blvd.","address2":"","city":"Cupertino","country_code":"USA","description":null,"latitude":37.322385,"longitude":-122.008549,"state_code":"CA","zip_code":"95014","Geolocation":{"type":"Point","coordinates":[-122.008549,37.322385]}},{"name":"MapVersa","number_of_employees":110,"address1":"1000 2nd Avenue","address2":"Suite 1000","city":"Seattle","country_code":"USA","description":"Corporate Headquarters","latitude":47.617838,"longitude":-122.356027,"state_code":"WA","zip_code":"98104","Geolocation":{"type":"Point","coordinates":[-122.356027,47.617838]}},{"name":"LeapFish","number_of_employees":110,"address1":"155 N Wacker Drive","address2":"Suite 1000","city":"Chicago","country_code":"USA","description":"","latitude":41.87675,"longitude":-87.640458,"state_code":"IL","zip_code":"60606","Geolocation":{"type":"Point","coordinates":[-87.640458,41.87675]}},{"name":"Nalini Networks","number_of_employees":110,"address1":"Maximilianstra\u00c3\u0178e 5","address2":"","city":"Karlsruhe","country_code":"DEU","description":"","latitude":49.0138035,"longitude":8.3828698,"state_code":null,"zip_code":"76133","Geolocation":{"type":"Point","coordinates":[8.3828698,49.0138035]}},{"name":"Neverblue","number_of_employees":110,"address1":"11710 Plaza America Drive","address2":"Suite 2000 PMB 3A","city":"Reston","country_code":"USA","description":"","latitude":38.952289,"longitude":-77.351006,"state_code":"VA","zip_code":"20190","Geolocation":{"type":"Point","coordinates":[-77.351006,38.952289]}},{"name":"NetMotion Wireless","number_of_employees":107,"address1":"1601 2nd Ave","address2":"Suite 800","city":"Seattle","country_code":"USA","description":"Z2Live","latitude":47.6103008,"longitude":-122.3399782,"state_code":"WA","zip_code":"98101","Geolocation":{"type":"Point","coordinates":[-122.3399782,47.6103008]}},{"name":"RockYou","number_of_employees":106,"address1":"222 N. Sepulveda Blvd.","address2":"Suite 1800","city":"El Segundo","country_code":"USA","description":"HQ","latitude":33.9192583,"longitude":-118.3952969,"state_code":"CA","zip_code":"90245","Geolocation":{"type":"Point","coordinates":[-118.3952969,33.9192583]}},{"name":"GitHub","number_of_employees":106,"address1":"817 E Gate Dr","address2":"","city":"Mount Laurel","country_code":"USA","description":"Headquarters","latitude":39.942788,"longitude":-74.950462,"state_code":"NJ","zip_code":"08054","Geolocation":{"type":"Point","coordinates":[-74.950462,39.942788]}},{"name":"Tribold","number_of_employees":106,"address1":"390 West Java Drive","address2":"","city":"Sunnyvale","country_code":"USA","description":"HQ","latitude":37.4123706,"longitude":-122.0216271,"state_code":"CA","zip_code":"94089","Geolocation":{"type":"Point","coordinates":[-122.0216271,37.4123706]}},{"name":"Sift","number_of_employees":105,"address1":"818 N. La Brea Ave.","address2":"","city":"Los Angeles","country_code":"USA","description":null,"latitude":34.085749,"longitude":-118.343791,"state_code":"CA","zip_code":"90038","Geolocation":{"type":"Point","coordinates":[-118.343791,34.085749]}},{"name":"ControlCircle","number_of_employees":105,"address1":"22 W 21st St","address2":"10th Floor","city":"New York","country_code":"USA","description":"","latitude":40.743808,"longitude":-73.983626,"state_code":"NY","zip_code":"10010","Geolocation":{"type":"Point","coordinates":[-73.983626,40.743808]}},{"name":"2 Minutes","number_of_employees":105,"address1":"111 8th Avenue, #1509","address2":"","city":"New York","country_code":"USA","description":"Livestream HQ","latitude":40.726155,"longitude":-73.995625,"state_code":"NY","zip_code":"10011","Geolocation":{"type":"Point","coordinates":[-73.995625,40.726155]}},{"name":"Pontis","number_of_employees":105,"address1":"901 Marshall Street","address2":"Suite 200","city":"Redwood City","country_code":"USA","description":"","latitude":37.479952,"longitude":-122.178557,"state_code":"CA","zip_code":"94063","Geolocation":{"type":"Point","coordinates":[-122.178557,37.479952]}},{"name":"iWin","number_of_employees":103,"address1":"311 Ray Street","address2":"","city":"Pleasanton","country_code":"USA","description":"","latitude":37.6637279,"longitude":-121.8731805,"state_code":"CA","zip_code":"94566","Geolocation":{"type":"Point","coordinates":[-121.8731805,37.6637279]}},{"name":"Jama Software","number_of_employees":103,"address1":"11951 Freedom Drive","address2":"13 FL","city":"Reston","country_code":"USA","description":"One Freedom Drive","latitude":38.9590083,"longitude":-77.3592746,"state_code":"VA","zip_code":"20190","Geolocation":{"type":"Point","coordinates":[-77.3592746,38.9590083]}},{"name":"GoGrid","number_of_employees":102,"address1":"10 Margaret Street","address2":"","city":"London","country_code":"GBR","description":"","latitude":51.5170385,"longitude":-0.1394759,"state_code":null,"zip_code":"W1W 8RL","Geolocation":{"type":"Point","coordinates":[-0.1394759,51.5170385]}},{"name":"hi5","number_of_employees":100,"address1":"4699 Old Ironsides Drive, Ste 430","address2":"","city":"Santa Clara","country_code":"USA","description":"Headquarters","latitude":37.399208,"longitude":-121.97895,"state_code":"CA","zip_code":"95054","Geolocation":{"type":"Point","coordinates":[-121.97895,37.399208]}},{"name":"mig33","number_of_employees":100,"address1":"7095 Hollywood Blvd #788","address2":"","city":"Hollywood","country_code":"USA","description":null,"latitude":34.101578,"longitude":-118.33334,"state_code":"CA","zip_code":"90028","Geolocation":{"type":"Point","coordinates":[-118.33334,34.101578]}},{"name":"Fon","number_of_employees":100,"address1":"48 Wall Street","address2":"","city":"New York","country_code":"USA","description":"HQ","latitude":40.706271,"longitude":-74.009242,"state_code":"NY","zip_code":"10005","Geolocation":{"type":"Point","coordinates":[-74.009242,40.706271]}},{"name":"EchoSign","number_of_employees":100,"address1":"4 Columbus Circle","address2":"","city":"New York City","country_code":"USA","description":"Zagat Survey, LLC","latitude":40.76769,"longitude":-73.982558,"state_code":"NY","zip_code":"10019","Geolocation":{"type":"Point","coordinates":[-73.982558,40.76769]}},{"name":"Firetide","number_of_employees":100,"address1":"205 Pennsylvania Ave, SE","address2":"","city":"Washington","country_code":"USA","description":"Headquarters","latitude":38.887249,"longitude":-77.003188,"state_code":"DC","zip_code":"20003","Geolocation":{"type":"Point","coordinates":[-77.003188,38.887249]}},{"name":"Verimatrix","number_of_employees":100,"address1":"2780 Skypark Drive","address2":"Suite 300","city":"Torrance","country_code":"USA","description":"","latitude":33.8054016,"longitude":-118.3376842,"state_code":"CA","zip_code":"90505","Geolocation":{"type":"Point","coordinates":[-118.3376842,33.8054016]}},{"name":"Survey Analytics","number_of_employees":100,"address1":"10 Milner Business Court","address2":"Suite 208","city":"Toronto","country_code":"CAN","description":"","latitude":43.7896181,"longitude":-79.2354377,"state_code":null,"zip_code":"M1B 3C6","Geolocation":{"type":"Point","coordinates":[-79.2354377,43.7896181]}},{"name":"Social Gaming Network","number_of_employees":100,"address1":"747 Front Street","address2":"2nd Floor","city":"San Francisco","country_code":"USA","description":"","latitude":37.797435,"longitude":-122.403175,"state_code":"CA","zip_code":"94111","Geolocation":{"type":"Point","coordinates":[-122.403175,37.797435]}},{"name":"Elance","number_of_employees":100,"address1":"725 Pleasant Valley Rd.","address2":"","city":"Springboro","country_code":"USA","description":"Headquarters","latitude":39.559055,"longitude":-84.26181,"state_code":"OH","zip_code":"45066","Geolocation":{"type":"Point","coordinates":[-84.26181,39.559055]}},{"name":"Parature","number_of_employees":100,"address1":"201 SE 2nd Ave Ste. 209","address2":"","city":"Gainesville","country_code":"USA","description":"Headquarters","latitude":29.6502461,"longitude":-82.3230981,"state_code":"FL","zip_code":"32601","Geolocation":{"type":"Point","coordinates":[-82.3230981,29.6502461]}},{"name":"Red Bend Software","number_of_employees":100,"address1":"2513 Charleston Road","address2":"Suite 102","city":"Mountain View","country_code":"USA","description":"Jajah HQ","latitude":37.4233896,"longitude":-122.0899512,"state_code":"CA","zip_code":"94043","Geolocation":{"type":"Point","coordinates":[-122.0899512,37.4233896]}},{"name":"BuildDirect","number_of_employees":100,"address1":"137 Varick Street","address2":"Floor 8","city":"New York","country_code":"USA","description":null,"latitude":40.725883,"longitude":-74.006196,"state_code":"NY","zip_code":"10013","Geolocation":{"type":"Point","coordinates":[-74.006196,40.725883]}},{"name":"Phonewire","number_of_employees":100,"address1":"35 Golden Ave","address2":"Suite 105","city":"Toronto","country_code":"CAN","description":"HQ","latitude":43.70391,"longitude":-79.452609,"state_code":null,"zip_code":"M6R 2J5","Geolocation":{"type":"Point","coordinates":[-79.452609,43.70391]}},{"name":"Cartedge","number_of_employees":100,"address1":"10180 Telesis Ct.","address2":"","city":"San Diego","country_code":"USA","description":"ANNOVA Technologies Inc.","latitude":32.902266,"longitude":-117.20834,"state_code":"CA","zip_code":"92121","Geolocation":{"type":"Point","coordinates":[-117.20834,32.902266]}},{"name":"Making Sense","number_of_employees":100,"address1":"4420 Rosewood Drive","address2":"Suite 2550","city":"pleasanton","country_code":"USA","description":"LeapFish Headquarters","latitude":37.700863,"longitude":-121.8794206,"state_code":"CA","zip_code":"94588","Geolocation":{"type":"Point","coordinates":[-121.8794206,37.700863]}},{"name":"TDI","number_of_employees":100,"address1":"37\/2, 39 & 40,","address2":"Whitefield,","city":"Bangalore","country_code":"IND","description":"Nalini Networks","latitude":35.2675117,"longitude":139.1870746,"state_code":null,"zip_code":"560 039","Geolocation":{"type":"Point","coordinates":[139.1870746,35.2675117]}},{"name":"VBS TV","number_of_employees":100,"address1":"302-852 Fort Street","address2":"","city":"Victoria","country_code":"CAN","description":"Head Office","latitude":48.4244865,"longitude":-123.363909,"state_code":null,"zip_code":"V8W1H8","Geolocation":{"type":"Point","coordinates":[-123.363909,48.4244865]}},{"name":"Photobucket","number_of_employees":100,"address1":"701 N 34th Street","address2":"Suite 250","city":"Seattle","country_code":"USA","description":"Seattle","latitude":47.649392,"longitude":-122.3486837,"state_code":"WA","zip_code":"98103","Geolocation":{"type":"Point","coordinates":[-122.3486837,47.649392]}},{"name":"Easypano","number_of_employees":100,"address1":"585 Broadway","address2":"Suite A","city":"Redwood City","country_code":"USA","description":"","latitude":37.484619,"longitude":-122.206893,"state_code":"CA","zip_code":"94063","Geolocation":{"type":"Point","coordinates":[-122.206893,37.484619]}},{"name":"Message Systems","number_of_employees":100,"address1":"275 Brannan St.","address2":"","city":"San Francisco","country_code":"USA","description":"","latitude":37.775196,"longitude":-122.419204,"state_code":"CA","zip_code":"94107","Geolocation":{"type":"Point","coordinates":[-122.419204,37.775196]}},{"name":"Cklear","number_of_employees":100,"address1":"19 Bolsover Street","address2":"The Media Centre","city":"London","country_code":"GBR","description":"HQ","latitude":51.5209358,"longitude":-0.1424094,"state_code":null,"zip_code":"W1W 5NA","Geolocation":{"type":"Point","coordinates":[-0.1424094,51.5209358]}},{"name":"Black Duck Software","number_of_employees":100,"address1":"48-52 Baldwin Street","address2":"","city":"Bristol","country_code":"GBR","description":"Bridge House","latitude":51.451168,"longitude":-2.5869272,"state_code":null,"zip_code":"BS1 1QB","Geolocation":{"type":"Point","coordinates":[-2.5869272,51.451168]}},{"name":"HexaCorp","number_of_employees":100,"address1":"221 Marsh Wall","address2":"Moorfoot House","city":"London","country_code":"GBR","description":"London Office","latitude":51.5003204,"longitude":-0.0178689,"state_code":null,"zip_code":"E14 9FH","Geolocation":{"type":"Point","coordinates":[-0.0178689,51.5003204]}},{"name":"Vichara Technologies","number_of_employees":100,"address1":"9 rue biscornet","address2":"","city":"Paris","country_code":"FRA","description":"","latitude":48.8502056,"longitude":2.3698033,"state_code":null,"zip_code":"75012","Geolocation":{"type":"Point","coordinates":[2.3698033,48.8502056]}},{"name":"HexaCorp","number_of_employees":100,"address1":"13 Zarhin st. (building C),","address2":"POB 2335","city":"Ra\u2019anana","country_code":"ISR","description":"HQ","latitude":32.1980455,"longitude":34.8824253,"state_code":null,"zip_code":"4366241","Geolocation":{"type":"Point","coordinates":[34.8824253,32.1980455]}},{"name":"Vichara Technologies","number_of_employees":100,"address1":"Vuelta de Obligado 1918","address2":"Piso 6B","city":"Capital Federal","country_code":"ARG","description":"Pontis Latin America","latitude":-34.5631882,"longitude":-58.4541925,"state_code":null,"zip_code":"1428","Geolocation":{"type":"Point","coordinates":[-58.4541925,-34.5631882]}},{"name":"inTALK","number_of_employees":100,"address1":"45 Fremont Street","address2":"Suite 3100","city":"San Francisco","country_code":"USA","description":"","latitude":37.781689,"longitude":-122.391061,"state_code":"CA","zip_code":"94105","Geolocation":{"type":"Point","coordinates":[-122.391061,37.781689]}},{"name":"Open-Xchange","number_of_employees":100,"address1":"1060 NW 9th Avenue","address2":"","city":"Portland","country_code":"USA","description":"Headquarters","latitude":45.5309644,"longitude":-122.68038,"state_code":"OR","zip_code":"97209","Geolocation":{"type":"Point","coordinates":[-122.68038,45.5309644]}},{"name":"Trustpilot","number_of_employees":100,"address1":"2 Harrison Street","address2":"2nd Floor","city":"San Francisco","country_code":"USA","description":"Corporate Office","latitude":37.7895248,"longitude":-122.3886569,"state_code":"CA","zip_code":"94105","Geolocation":{"type":"Point","coordinates":[-122.3886569,37.7895248]}},{"name":"Sendmail","number_of_employees":100,"address1":"360 Spear Street","address2":"2nd Floor","city":"San Francisco","country_code":"USA","description":"Data Center","latitude":37.78932,"longitude":-122.390058,"state_code":"CA","zip_code":"94105","Geolocation":{"type":"Point","coordinates":[-122.390058,37.78932]}},{"name":"Cataphora","number_of_employees":100,"address1":"55 Second Street","address2":"Suite 400","city":"San Francisco","country_code":"USA","description":"","latitude":37.788668,"longitude":-122.400558,"state_code":"CA","zip_code":"94105","Geolocation":{"type":"Point","coordinates":[-122.400558,37.788668]}},{"name":"CyberSynchs","number_of_employees":100,"address1":"111 North Bridge Road","address2":"Peninsula Plaza #26-01","city":"Singapore","country_code":"SGP","description":"mig33 Headquarters","latitude":37.580304,"longitude":-122.343679,"state_code":null,"zip_code":"179098","Geolocation":{"type":"Point","coordinates":[-122.343679,37.580304]}},{"name":"DotNext","number_of_employees":100,"address1":"Calle Quintanavides 15","address2":"2-1","city":"Madrid","country_code":"ESP","description":"","latitude":40.530724,"longitude":-3.632687,"state_code":null,"zip_code":"28050","Geolocation":{"type":"Point","coordinates":[-3.632687,40.530724]}},{"name":"Proxibid","number_of_employees":100,"address1":"555 Bryant Street, #101","address2":null,"city":"Palo Alto","country_code":"USA","description":null,"latitude":37.445326,"longitude":-122.160671,"state_code":"CA","zip_code":"94301","Geolocation":{"type":"Point","coordinates":[-122.160671,37.445326]}},{"name":"QualSoft Services","number_of_employees":100,"address1":"2105 South Bascom Avenue","address2":"Suite 220","city":"Campbell","country_code":"USA","description":"Headquarters","latitude":37.285133,"longitude":-121.932962,"state_code":"CA","zip_code":"95008","Geolocation":{"type":"Point","coordinates":[-121.932962,37.285133]}},{"name":"LawCrossing","number_of_employees":100,"address1":"6825 Flanders Drive","address2":"","city":"San Diego","country_code":"USA","description":"Corporate Headquarters","latitude":32.903248,"longitude":-117.175733,"state_code":"CA","zip_code":"92121","Geolocation":{"type":"Point","coordinates":[-117.175733,32.903248]}},{"name":"Digimind","number_of_employees":100,"address1":"","address2":"jj","city":"Seattle","country_code":"USA","description":"","latitude":47.650674,"longitude":-122.349863,"state_code":"WA","zip_code":"98103","Geolocation":{"type":"Point","coordinates":[-122.349863,47.650674]}},{"name":"InteQ","number_of_employees":100,"address1":"9570 W. Pico Blvd 3rd Floor","address2":"","city":"Los Angeles","country_code":"USA","description":"HQ Los Angeles","latitude":37.446823,"longitude":-122.161523,"state_code":"CA","zip_code":"90035","Geolocation":{"type":"Point","coordinates":[-122.161523,37.446823]}},{"name":"Naseeb Networks","number_of_employees":100,"address1":"9606 S. Santa Monica Blvd","address2":"2nd Floor","city":"Beverly Hills","country_code":"USA","description":"","latitude":34.0698494,"longitude":-118.4054182,"state_code":"CA","zip_code":"90210","Geolocation":{"type":"Point","coordinates":[-118.4054182,34.0698494]}},{"name":"ZillionTV","number_of_employees":100,"address1":"441 Logue Avenue","address2":"","city":"Mountain View","country_code":"USA","description":"Headquarters","latitude":37.398022,"longitude":-122.049143,"state_code":"CA","zip_code":"94043","Geolocation":{"type":"Point","coordinates":[-122.049143,37.398022]}},{"name":"TIS India","number_of_employees":100,"address1":"13625 \u2013B Dulles Technology Drive","address2":"","city":"Herndon","country_code":"USA","description":"","latitude":38.912791,"longitude":-77.220048,"state_code":"VA","zip_code":"20171","Geolocation":{"type":"Point","coordinates":[-77.220048,38.912791]}},{"name":"BelWo","number_of_employees":100,"address1":"400-1 Totten Pond Road, Suite 130","address2":"","city":"Waltham","country_code":"USA","description":null,"latitude":42.389795,"longitude":-71.239286,"state_code":"MA","zip_code":"02451","Geolocation":{"type":"Point","coordinates":[-71.239286,42.389795]}},{"name":"NuView Systems","number_of_employees":100,"address1":"717 West Pender St.","address2":"","city":"Vancouver","country_code":"CAN","description":"","latitude":49.283935,"longitude":-123.11593,"state_code":null,"zip_code":"V6C 3G9","Geolocation":{"type":"Point","coordinates":[-123.11593,49.283935]}},{"name":"Soffront","number_of_employees":100,"address1":"PO BOX 775494","address2":"","city":"St. Louis","country_code":"USA","description":null,"latitude":38.6272,"longitude":-90.1978,"state_code":"MO","zip_code":"63177","Geolocation":{"type":"Point","coordinates":[-90.1978,38.6272]}},{"name":"Taipan Publishing Group","number_of_employees":100,"address1":"7117 South 400 West #3,","address2":"","city":"Midvale","country_code":"USA","description":null,"latitude":40.622919,"longitude":-111.900917,"state_code":"UT","zip_code":"84047","Geolocation":{"type":"Point","coordinates":[-111.900917,40.622919]}},{"name":"Autoquake","number_of_employees":100,"address1":"401 East Houston St","address2":"","city":"San Antonio","country_code":"USA","description":"US Headquarters","latitude":29.516352,"longitude":-98.43676,"state_code":"TX","zip_code":"78205","Geolocation":{"type":"Point","coordinates":[-98.43676,29.516352]}},{"name":"Ergon Informatik","number_of_employees":100,"address1":"1338 Thames St.","address2":"","city":"Buenos Aires","country_code":"ARG","description":"Argentina Headquarters","latitude":-34.5892808,"longitude":-58.43297,"state_code":null,"zip_code":"1414","Geolocation":{"type":"Point","coordinates":[-58.43297,-34.5892808]}},{"name":"EffectiveUI","number_of_employees":97,"address1":"3030 Garay St","address2":"","city":"Mar del Plata","country_code":"ARG","description":"Development Location","latitude":-38.0060917,"longitude":-57.5582444,"state_code":null,"zip_code":"7600","Geolocation":{"type":"Point","coordinates":[-57.5582444,-38.0060917]}},{"name":"eG Innovations","number_of_employees":95,"address1":"17255 N. 82nd Street","address2":"","city":"Scottsdale","country_code":"USA","description":"Headquarters","latitude":33.642529,"longitude":-111.901337,"state_code":"AZ","zip_code":"85255","Geolocation":{"type":"Point","coordinates":[-111.901337,33.642529]}},{"name":"Kineto Wireless","number_of_employees":95,"address1":"97 North Tenth Street","address2":"Suite 204","city":"Brooklyn","country_code":"USA","description":"HeadQuarters","latitude":40.720764,"longitude":-73.957968,"state_code":"NY","zip_code":"11211","Geolocation":{"type":"Point","coordinates":[-73.957968,40.720764]}},{"name":"Tableau Software","number_of_employees":92,"address1":"2399 Blake Street, Suite 160","address2":"","city":"Denver","country_code":"USA","description":"","latitude":47.601803,"longitude":-122.332085,"state_code":"CO","zip_code":"80205","Geolocation":{"type":"Point","coordinates":[-122.332085,47.601803]}},{"name":"Mixbook","number_of_employees":90,"address1":"21204","address2":"498 guo shoujing road","city":"Shanghai","country_code":"CHN","description":"","latitude":22.313675,"longitude":114.169241,"state_code":null,"zip_code":"201203","Geolocation":{"type":"Point","coordinates":[114.169241,22.313675]}},{"name":"Ifbyphone","number_of_employees":90,"address1":"7070 Samuel Morse Drive","address2":"Suite 150","city":"Columbia","country_code":"USA","description":"Headquarters","latitude":39.169397,"longitude":-76.811526,"state_code":"MD","zip_code":"21046","Geolocation":{"type":"Point","coordinates":[-76.811526,39.169397]}},{"name":"Clickpass","number_of_employees":90,"address1":"Guanock House, Guanockgate,","address2":"Sutton St.Edmund\u00e2\u20ac\u2122s, Spalding,","city":"","country_code":"GBR","description":"Cklear Ltd","latitude":52.8525751,"longitude":0.1726251,"state_code":null,"zip_code":"PE12 0LW","Geolocation":{"type":"Point","coordinates":[0.1726251,52.8525751]}},{"name":"24SevenOffice","number_of_employees":90,"address1":"265 Winter Street","address2":"North Entrance","city":"Waltham","country_code":"USA","description":"Headquarters","latitude":42.398916,"longitude":-71.253998,"state_code":"MA","zip_code":"02451","Geolocation":{"type":"Point","coordinates":[-71.253998,42.398916]}},{"name":"Medio","number_of_employees":90,"address1":"1810 Gateway Drive","address2":"Suite 270","city":"San Mateo","country_code":"USA","description":"West Coast Office","latitude":37.556152,"longitude":-122.281484,"state_code":"CA","zip_code":"94404","Geolocation":{"type":"Point","coordinates":[-122.281484,37.556152]}},{"name":"Sanera","number_of_employees":89,"address1":"67 Downham Cresent","address2":"Prestwick","city":"Manchester","country_code":"GBR","description":"UK Offices","latitude":53.524419,"longitude":-2.258714,"state_code":null,"zip_code":"M25 0E4","Geolocation":{"type":"Point","coordinates":[-2.258714,53.524419]}},{"name":"OLX","number_of_employees":85,"address1":"Strawinskylaan 3051","address2":"","city":"Amsterdam","country_code":"NLD","description":"European Headquarters","latitude":52.340609,"longitude":4.870312,"state_code":null,"zip_code":"1077 ZX","Geolocation":{"type":"Point","coordinates":[4.870312,52.340609]}},{"name":"BroadSoft","number_of_employees":85,"address1":"","address2":"","city":"Somerset","country_code":"USA","description":"New Jersey Office","latitude":40.554887,"longitude":-74.464286,"state_code":"NJ","zip_code":"08873","Geolocation":{"type":"Point","coordinates":[-74.464286,40.554887]}},{"name":"Adlucent","number_of_employees":85,"address1":"","address2":"","city":"Chennai","country_code":"IND","description":"Chennai-India Office","latitude":13.060416,"longitude":80.249634,"state_code":null,"zip_code":"","Geolocation":{"type":"Point","coordinates":[80.249634,13.060416]}},{"name":"GuardianEdge Technologies","number_of_employees":85,"address1":"111 John Street","address2":"Suite 1801","city":"New York","country_code":"USA","description":"New York Office","latitude":40.7075492,"longitude":-74.0055997,"state_code":"NY","zip_code":"10038","Geolocation":{"type":"Point","coordinates":[-74.0055997,40.7075492]}},{"name":"Vinfotech","number_of_employees":85,"address1":"","address2":"","city":"Somerset","country_code":"USA","description":"New Jersey Office","latitude":40.554887,"longitude":-74.464286,"state_code":"NJ","zip_code":"08873","Geolocation":{"type":"Point","coordinates":[-74.464286,40.554887]}},{"name":"ReverbNation","number_of_employees":85,"address1":"","address2":"","city":"Chennai","country_code":"IND","description":"Chennai-India Office","latitude":13.060416,"longitude":80.249634,"state_code":null,"zip_code":"","Geolocation":{"type":"Point","coordinates":[80.249634,13.060416]}},{"name":"Etix","number_of_employees":85,"address1":"111 John Street","address2":"Suite 1801","city":"New York","country_code":"USA","description":"New York Office","latitude":40.7075492,"longitude":-74.0055997,"state_code":"NY","zip_code":"10038","Geolocation":{"type":"Point","coordinates":[-74.0055997,40.7075492]}},{"name":"ictv","number_of_employees":80,"address1":"2151 E Broadway Road","address2":"Suite 106","city":"Tempe","country_code":"USA","description":"HQ","latitude":33.407392,"longitude":-111.892085,"state_code":"AZ","zip_code":"85282","Geolocation":{"type":"Point","coordinates":[-111.892085,33.407392]}},{"name":"BitTorrent","number_of_employees":80,"address1":"303 South Broadway","address2":"","city":"Tarrytown","country_code":"USA","description":"HQ","latitude":41.0662835,"longitude":-73.8625452,"state_code":"NY","zip_code":"10591","Geolocation":{"type":"Point","coordinates":[-73.8625452,41.0662835]}},{"name":"Baynote","number_of_employees":80,"address1":"Martinstr. 41","address2":"","city":"Olpe","country_code":"DEU","description":"Open-Xchange GmbH","latitude":51.029415,"longitude":7.850863,"state_code":null,"zip_code":"D-57462","Geolocation":{"type":"Point","coordinates":[7.850863,51.029415]}},{"name":"ice","number_of_employees":80,"address1":"Rollnerstr. 14","address2":"","city":"Nuremberg","country_code":"DEU","description":"Open-Xchange GmbH","latitude":49.4605351,"longitude":11.0823953,"state_code":null,"zip_code":"D-90408","Geolocation":{"type":"Point","coordinates":[11.0823953,49.4605351]}},{"name":"Insala","number_of_employees":80,"address1":"Trommesalen 5","address2":"","city":"Copenhagen V","country_code":"DNK","description":"Copenhagen HQ","latitude":55.6739617,"longitude":12.5605372,"state_code":null,"zip_code":"1614","Geolocation":{"type":"Point","coordinates":[12.5605372,55.6739617]}},{"name":"Rutube","number_of_employees":80,"address1":"6475 Christie Ave.,","address2":"Suite 350","city":"Emeryville","country_code":"USA","description":"","latitude":37.8454819,"longitude":-122.296342,"state_code":"CA","zip_code":"94608","Geolocation":{"type":"Point","coordinates":[-122.296342,37.8454819]}},{"name":"Origin Digital","number_of_employees":80,"address1":"3425 Edison Way","address2":"","city":"Menlo Park","country_code":"USA","description":"Headquarters","latitude":37.477652,"longitude":-122.223384,"state_code":"CA","zip_code":"94025","Geolocation":{"type":"Point","coordinates":[-122.223384,37.477652]}},{"name":"Yabb","number_of_employees":80,"address1":"","address2":"","city":"Frankfurt","country_code":"DEU","description":"","latitude":50.1115118,"longitude":8.6805059,"state_code":null,"zip_code":"","Geolocation":{"type":"Point","coordinates":[8.6805059,50.1115118]}},{"name":"Stockhouse","number_of_employees":80,"address1":"44 West 28th street","address2":"8th floor","city":"NYC","country_code":"USA","description":"","latitude":40.745534,"longitude":-73.990033,"state_code":"NY","zip_code":"10001","Geolocation":{"type":"Point","coordinates":[-73.990033,40.745534]}},